objectid,streetname,mid_lat,mid_lng,risk_score,risk_category,domi_class,is_snow_emergency_route
19021,W WOODFORD AVE,40.393252,-79.986866,0.956855,very_high,Local,False
17342,W AGNEW AVE,40.394672,-79.987436,0.956855,very_high,Local,False
1408,CARESS WAY,40.399509,-80.02007,0.956855,very_high,Alley,False
5404,CREEDMOOR AVE,40.38966,-80.012956,0.956855,very_high,Collector,True
13261,YOLA WAY,40.38881,-80.011079,0.956855,very_high,Alley,True
19190,WILKES WAY,40.389809,-80.011522,0.956855,very_high,Alley,False
13748,YOLA WAY,40.389466,-80.011968,0.956855,very_high,Alley,False
2254,LUGI WAY,40.388269,-80.01176,0.956855,very_high,Alley,True
15602,LUGI WAY,40.389383,-80.013293,0.956855,very_high,Alley,True
11348,YOLA WAY,40.391059,-80.014157,0.949905,very_high,Alley,True
11950,FROMM WAY,40.393872,-79.98409,0.949905,very_high,Alley,False
6527,OLEATHA WAY,40.39537,-80.019826,0.949905,very_high,Alley,False
4161,E AGNEW AVE,40.395613,-79.985348,0.949905,very_high,Local,False
10100,E AGNEW AVE,40.395242,-79.986489,0.949905,very_high,Local,True
2928,CREEDMOOR AVE,40.39086,-80.014622,0.949905,very_high,Collector,True
10714,ROSSMORE AVE,40.395691,-80.019544,0.949905,very_high,Local,False
1505,STEUBEN ST,40.444282,-80.029156,0.949087,very_high,Collector,True
2352,MERRICK AVE,40.390737,-80.011656,0.941965,very_high,Local,False
8410,FREEDOM AVE,40.388799,-80.01208,0.941965,very_high,Local,False
12596,CREEDMOOR AVE,40.388542,-80.011414,0.941965,very_high,Collector,True
18045,OAKRIDGE ST,40.390298,-80.014131,0.941965,very_high,Local,False
6005,MERRICK AVE,40.39126,-80.013048,0.941965,very_high,Local,False
2887,CONCORDIA ST,40.395536,-79.986254,0.941965,very_high,Local,False
7792,WAREMAN AVE,40.391217,-80.013667,0.941965,very_high,Local,False
6006,OAKRIDGE ST,40.391106,-80.013139,0.941965,very_high,Local,False
7283,FREEDOM AVE,40.389983,-80.01061,0.941965,very_high,Local,False
10143,FREEDOM AVE,40.388227,-80.01279,0.941965,very_high,Local,False
16112,FREEDOM AVE,40.389076,-80.011736,0.941965,very_high,Local,False
15021,WAREMAN AVE,40.38958,-80.011411,0.941965,very_high,Local,False
17891,FREEDOM AVE,40.389346,-80.011401,0.941965,very_high,Local,False
4803,OAKRIDGE ST,40.39057,-80.013795,0.941965,very_high,Local,False
2914,OAKRIDGE ST,40.390841,-80.013459,0.941965,very_high,Local,False
11507,CHELTON AVE,40.389097,-80.013643,0.941965,very_high,Local,False
12059,FREEDOM AVE,40.38852,-80.012427,0.941965,very_high,Local,False
17311,WAREMAN AVE,40.389087,-80.01073,0.941965,very_high,Local,False
12626,WESTMONT AVE,40.393681,-79.987668,0.939781,very_high,Local,False
17947,HIGHNOTE WAY,40.397852,-79.985009,0.939781,very_high,Alley,False
9588,MILAN AVE,40.393795,-80.014209,0.939781,very_high,Local,False
2417,GALLION AVE,40.396549,-80.019283,0.939781,very_high,Local,False
1468,PANDORA WAY,40.398354,-79.984162,0.939781,very_high,Alley,False
17888,KLEINER WAY,40.394091,-79.9879,0.939781,very_high,Alley,False
10111,GEORGIA AVE,40.409234,-79.995514,0.939781,very_high,Local,False
9542,OAKHURST WAY,40.393698,-79.988282,0.939781,very_high,Alley,False
1077,SLOSS ST,40.394325,-79.989256,0.939781,very_high,Local,False
11421,REDROSE AVE,40.398289,-79.983245,0.939781,very_high,Local,False
723,WIRT WAY,40.411639,-79.978933,0.939781,very_high,Alley,False
12611,PLAINVIEW AVE,40.401564,-80.019198,0.939781,very_high,Local,False
1388,MT JOSEPH ST,40.394883,-79.989429,0.939781,very_high,Local,False
724,RECTENWALD ST,40.411057,-79.979562,0.939781,very_high,Local,False
13760,METZ WAY,40.400016,-80.01909,0.939781,very_high,Alley,False
4191,METZ WAY,40.400034,-80.019856,0.939781,very_high,Alley,False
6570,BELLE ISLE AVE,40.400054,-80.021949,0.939781,very_high,Local,False
17307,FERNERY WAY,40.385859,-79.999589,0.939781,very_high,Alley,False
16611,RECTENWALD ST,40.411404,-79.979574,0.939781,very_high,Local,False
1694,COPPERFIELD AVE,40.396133,-79.987667,0.939781,very_high,Local,False
8178,CATHEDRAL AVE,40.411988,-79.978886,0.939781,very_high,Local,False
2238,DELLROSE ST,40.395438,-79.987535,0.939781,very_high,Local,True
4181,BUSH WAY,40.389423,-80.010307,0.939781,very_high,Alley,False
6038,BERWIN AVE,40.397257,-80.018491,0.939781,very_high,Local,False
17887,WESTMONT AVE,40.394289,-79.987588,0.939781,very_high,Local,False
19101,W WOODFORD AVE,40.393292,-79.987508,0.939781,very_high,Local,False
1425,WOLFORD ST,40.397074,-80.019132,0.939781,very_high,Local,False
1426,MEREDITH ST,40.397493,-79.985073,0.939781,very_high,Local,False
16657,COPPERFIELD AVE,40.395952,-79.988183,0.939781,very_high,Local,False
4189,WOODWARD AVE,40.400226,-80.022255,0.939781,very_high,Local,False
13769,W WOODFORD AVE,40.393312,-79.988073,0.939781,very_high,Local,False
13167,HUFF WAY,40.38716,-80.000676,0.939781,very_high,Alley,False
9022,DUBROFF WAY,40.39695,-80.018534,0.939781,very_high,Alley,False
16744,WESTMONT AVE,40.395124,-79.98801,0.939781,very_high,Local,False
5991,MT JOSEPH ST,40.39388,-79.988939,0.939781,very_high,Local,False
8929,FLATBUSH AVE,40.395325,-80.018005,0.932746,very_high,Local,False
15528,MADELINE ST,40.394129,-79.984239,0.932746,very_high,Local,False
7780,SCOUT AVE,40.394195,-79.9838,0.932746,very_high,Local,False
6585,DELLROSE ST,40.394058,-79.987097,0.932746,very_high,Local,False
7142,E WOODFORD AVE,40.393287,-79.985899,0.932746,very_high,Local,False
14901,FLATBUSH AVE,40.394775,-80.018685,0.932746,very_high,Local,False
4772,HAZELDELL ST,40.393821,-79.985276,0.932746,very_high,Local,False
14269,BROWNSVILLE RD,40.393721,-79.986442,0.932746,very_high,Collector,True
1181,W AGNEW AVE,40.394972,-79.986995,0.932746,very_high,Local,True
16063,BROWNSVILLE RD,40.394413,-79.986416,0.932746,very_high,Collector,True
11332,MADELINE ST,40.394226,-79.985817,0.932746,very_high,Local,False
15479,BROWNSVILLE RD,40.395618,-79.987029,0.932746,very_high,Collector,True
5439,HORNADAY RD,40.394846,-79.98455,0.932746,very_high,Local,False
16664,FLATBUSH AVE,40.39449,-80.019034,0.932746,very_high,Local,False
13272,WAREMAN AVE,40.390298,-80.012411,0.932746,very_high,Local,False
1386,BROWNSVILLE RD,40.394863,-79.986615,0.932746,very_high,Collector,True
18032,FLATBUSH AVE,40.395636,-80.017608,0.932746,very_high,Local,False
17869,FLATBUSH AVE,40.39505,-80.018346,0.932746,very_high,Local,False
3591,MERRICK AVE,40.391467,-80.013095,0.932746,very_high,Local,False
1242,MADELINE ST,40.394163,-79.984747,0.932746,very_high,Local,False
6586,REHMAN ST,40.393544,-79.982074,0.930234,very_high,Local,False
11405,POPLARGROVE ST,40.396936,-79.983958,0.930234,very_high,Local,False
3592,FAIRLAND ST,40.391228,-79.994992,0.930234,very_high,Local,False
2289,CARRICK AVE,40.391253,-79.980792,0.930234,very_high,Local,False
17895,WHITED ST,40.393207,-80.013212,0.930234,very_high,Collector,True
7187,EDGEBROOK AVE,40.393356,-80.014878,0.930234,very_high,Local,False
2972,E CHERRYHILL ST,40.399173,-79.984453,0.930234,very_high,Local,False
5994,EDGEBROOK AVE,40.392698,-80.015121,0.930234,very_high,Local,False
14260,PLAINVIEW AVE,40.404373,-80.016282,0.930234,very_high,Local,False
4201,OVERVIEW ST,40.39137,-79.993842,0.930234,very_high,Alley,False
17834,REDROSE AVE,40.397018,-79.98286,0.930234,very_high,Local,False
7941,SPRUCEWOOD ST,40.398572,-79.985638,0.930234,very_high,Local,False
13742,HIGHNOTE WAY,40.398828,-79.985471,0.930234,very_high,Alley,False
2959,MEREDITH ST,40.397564,-79.98571,0.930234,very_high,Local,False
3522,LUCINA AVE,40.386266,-79.992058,0.930234,very_high,Local,False
16766,GALLION AVE,40.396823,-80.019661,0.930234,very_high,Local,False
10695,WHITED ST,40.3928,-80.01318,0.930234,very_high,Collector,True
1278,BELLE ISLE AVE,40.400029,-80.020522,0.930234,very_high,Alley,True
9565,CAMPO WAY,40.391749,-79.984535,0.930234,very_high,Alley,False
2872,PLUMMET WAY,40.396001,-79.985545,0.930234,very_high,Alley,False
5403,APPIAN WAY,40.397373,-79.984036,0.930234,very_high,Alley,False
17884,SPRUCEWOOD ST,40.398875,-79.983363,0.930234,very_high,Local,False
11383,MILAN AVE,40.393818,-80.013624,0.930234,very_high,Local,False
3676,PLUMMET WAY,40.396562,-79.983743,0.930234,very_high,Alley,False
13867,RADIANT ST,40.390724,-79.98049,0.930234,very_high,Local,False
16105,E CHERRYHILL ST,40.39901,-79.98585,0.930234,very_high,Local,False
2273,REHMAN ST,40.394099,-79.982334,0.930234,very_high,Local,False
5552,GONSHA WAY,40.39378,-80.015318,0.930234,very_high,Alley,False
1689,RAEBURN WAY,40.396264,-80.017983,0.930234,very_high,Alley,False
17906,REVISION WAY,40.394019,-79.982804,0.930234,very_high,Alley,False
7194,CAMPO WAY,40.391646,-79.983207,0.930234,very_high,Alley,False
5922,PLUMMET WAY,40.396919,-79.982587,0.930234,very_high,Alley,False
17463,REDROSE AVE,40.396655,-79.982652,0.930234,very_high,Local,False
4770,ARDEN WAY,40.393694,-79.984414,0.930234,very_high,Alley,False
14331,BELLAIRE AVE,40.393053,-80.012898,0.930234,very_high,Local,True
16185,PANDORA WAY,40.398178,-79.985496,0.930234,very_high,Alley,False
14281,PEAR WAY,40.394769,-80.015096,0.930234,very_high,Alley,False
14952,ALWYN ST,40.393538,-80.012654,0.930234,very_high,Local,False
16663,E AGNEW AVE,40.396205,-79.983427,0.930234,very_high,Local,False
3508,ALWYN ST,40.393182,-80.012639,0.930234,very_high,Local,True
17438,REPEAL WAY,40.396222,-80.019555,0.930234,very_high,Alley,False
4155,POPLARGROVE ST,40.397301,-79.982709,0.930234,very_high,Local,False
7833,FRIGATE WAY,40.390252,-79.995519,0.930234,very_high,Alley,False
13802,REHMAN ST,40.394656,-79.982602,0.930234,very_high,Local,False
19166,FRIGATE WAY,40.389859,-79.995691,0.930234,very_high,Alley,False
11966,DELL WAY,40.393426,-80.013398,0.930234,very_high,Alley,True
2439,REDROSE AVE,40.397861,-79.983136,0.930234,very_high,Local,False
19144,MEREDITH ST,40.39781,-79.98402,0.930234,very_high,Local,False
16705,FROMM WAY,40.393402,-79.983922,0.930234,very_high,Alley,False
15963,CATHEDRAL AVE,40.411948,-79.980308,0.930234,very_high,Local,False
10224,YALE DR,40.390058,-79.995828,0.930234,very_high,Local,False
18569,FORT PITT BRG,40.439604,-80.009907,0.929608,very_high,Principal Arterial,True
4978,WEST END BRG,40.449,-80.02553,0.929608,very_high,Principal Arterial,True
3694,WEST END BRG RAMP,40.448543,-80.025527,0.929608,very_high,Principal Arterial,True
10026,BARRY ST,40.423709,-79.969434,0.924502,very_high,Local,True
5869,JOSEPHINE ST,40.423902,-79.969309,0.924502,very_high,Collector,True
2445,NORFOLK ST,40.422592,-79.933153,0.921844,very_high,Local,False
2788,GREENFIELD AVE,40.424312,-79.934747,0.921844,very_high,Collector,True
16623,GREENFIELD AVE,40.424078,-79.933046,0.921844,very_high,Collector,True
14265,FRANK ST,40.422301,-79.933886,0.921844,very_high,Local,False
17877,LOMAR WAY,40.422018,-79.923383,0.921844,very_high,Alley,False
13641,BRISTOL ST,40.422822,-79.946583,0.921844,very_high,Local,False
7714,MELBOURNE ST,40.421852,-79.934357,0.921844,very_high,Local,False
15300,FRANK ST,40.424004,-79.933442,0.921844,very_high,Local,True
10007,MILLINGTON RD,40.422382,-79.934416,0.921844,very_high,Local,False
3408,IOLA WAY,40.424563,-79.933792,0.921844,very_high,Alley,True
17678,UNNAMED55A54N WAY,40.423634,-79.948729,0.921844,very_high,Alley,False
18308,FRANK ST,40.423144,-79.933708,0.921844,very_high,Local,False
13159,LANDVIEW RD,40.421677,-79.923048,0.921844,very_high,Local,False
16598,GREENFIELD AVE,40.424247,-79.933745,0.921844,very_high,Collector,True
7945,CONCORDIA ST,40.396365,-79.986509,0.91938,very_high,Local,False
19165,PIONEER AVE,40.400794,-80.019363,0.91938,very_high,Collector,True
6660,BERWIN AVE,40.397562,-80.01891,0.91938,very_high,Local,False
14283,KOHEN ST,40.385949,-80.001809,0.91938,very_high,Local,False
11310,CONCORDIA ST,40.395955,-79.986444,0.91938,very_high,Local,False
2406,HORNING ST,40.381904,-79.99067,0.91938,very_high,Local,False
8417,MERRICK AVE,40.389758,-80.009888,0.91938,very_high,Local,False
17890,LEOLYN ST,40.397202,-79.985243,0.91938,very_high,Local,False
10786,LYNNBROOK AVE,40.394385,-80.013647,0.91938,very_high,Local,False
10861,W CARSON ST,40.44423,-80.028116,0.918193,very_high,Minor Arterial,True
1760,FRIGATE WAY,40.389467,-79.995863,0.915181,very_high,Alley,False
17860,HERETICK WAY,40.369147,-79.918269,0.914092,very_high,Alley,False
6000,COX AVE,40.368893,-79.917488,0.914092,very_high,Local,False
5942,HERETICK WAY,40.369169,-79.916466,0.914092,very_high,Alley,False
19036,COX AVE,40.369372,-79.917521,0.914092,very_high,Local,False
5444,BEAUFORT AVE,40.399309,-80.019565,0.912284,very_high,Local,False
12671,FORDHAM AVE,40.389979,-80.021212,0.912284,very_high,Local,False
3472,BETHESDA ST,40.384114,-79.981102,0.910656,very_high,Local,True
16201,WESTMONT AVE,40.398451,-79.990026,0.910656,very_high,Local,False
830,ALLEN ST,40.421055,-79.993724,0.909665,very_high,Local,False
2185,ASTEROID WAY,40.421549,-79.993269,0.909665,very_high,Alley,True
18891,TELESCOPE ST,40.422759,-79.967179,0.909665,very_high,Local,False
17138,BARRY ST,40.422835,-79.970344,0.909665,very_high,Local,False
14181,SHELLY ST,40.42215,-79.967709,0.909665,very_high,Local,False
8275,MANTON WAY,40.421291,-79.994473,0.909665,very_high,Local,False
5259,HELEN WAY,40.421069,-79.99424,0.909665,very_high,Alley,False
7116,MANTON WAY,40.421307,-79.99396,0.909665,very_high,Local,False
3369,ASTEROID WAY,40.421059,-79.993264,0.909665,very_high,Alley,False
16134,MADELINE ST,40.393687,-79.983056,0.906847,very_high,Local,False
3540,BELLAIRE AVE,40.392797,-80.015423,0.906847,very_high,Local,False
4790,HAITI ST,40.391466,-79.983982,0.906847,very_high,Local,False
18471,BELLAIRE AVE,40.392997,-80.014023,0.906847,very_high,Local,False
3532,HAITI ST,40.391901,-79.983923,0.906847,very_high,Local,False
10752,QUEENSTON ST,40.389138,-79.995506,0.906847,very_high,Local,False
10150,REDROSE AVE,40.394937,-79.98141,0.906847,very_high,Local,False
6587,STARKAMP ST,40.39369,-80.015905,0.906847,very_high,Local,False
9020,LEOLYN ST,40.397897,-79.985609,0.906847,very_high,Local,False
4169,SCOUT AVE,40.3943,-79.982827,0.906847,very_high,Local,False
16779,LEOLYN ST,40.3968,-79.985032,0.906847,very_high,Local,False
1691,LEOLYN ST,40.396423,-79.984833,0.906847,very_high,Local,False
17275,LEOLYN ST,40.397512,-79.985407,0.906847,very_high,Local,False
3006,EILER AVE,40.39044,-79.981771,0.906847,very_high,Local,False
2915,EILER AVE,40.391229,-79.98348,0.906847,very_high,Local,False
16786,NUZUM AVE,40.390439,-79.98391,0.906847,very_high,Local,False
1299,NUZUM AVE,40.39138,-79.982719,0.906847,very_high,Local,False
10896,DARTMORE ST,40.389744,-79.996268,0.906847,very_high,Local,False
14297,BECKS RUN RD,40.389704,-79.98286,0.906847,very_high,Collector,True
16813,ALRIES ST,40.399976,-79.984244,0.906847,very_high,Local,False
5348,HAZELDELL ST,40.393335,-79.985296,0.906847,very_high,Local,False
4293,DUFFLAND ST,40.392198,-79.984456,0.906847,very_high,Local,False
2237,LEOLYN ST,40.396029,-79.984625,0.906847,very_high,Local,False
18556,DARTMORE ST,40.390965,-79.995728,0.906847,very_high,Local,False
10715,HORNADAY RD,40.39527,-79.982287,0.906847,very_high,Local,False
16186,LEOLYN ST,40.398322,-79.985834,0.906847,very_high,Local,False
10827,NUZUM AVE,40.391022,-79.983157,0.906847,very_high,Local,False
7163,BELLAIRE AVE,40.395279,-80.02043,0.9049,very_high,Local,False
4859,EILER AVE,40.390205,-79.980873,0.901434,very_high,Local,False
15989,WALDE ST,40.410562,-79.979689,0.901434,very_high,Local,False
4148,AVA WAY,40.396805,-80.020057,0.901434,very_high,Alley,False
2430,WIRT WAY,40.411601,-79.980324,0.901434,very_high,Alley,False
6617,MILAN AVE,40.393764,-80.012378,0.898668,very_high,Local,False
6644,NEWETT ST,40.396651,-79.990542,0.896885,very_high,Local,False
11963,FITCH WAY,40.392549,-80.014213,0.896885,very_high,Alley,False
1335,WHITED ST,40.392388,-80.013154,0.896885,very_high,Collector,True
6498,ALNEW WAY,40.404391,-80.016745,0.896885,very_high,Alley,False
3545,BELLAIRE PL,40.392444,-80.012992,0.896885,very_high,Local,True
1233,LAUCH WAY,40.388366,-79.981946,0.892929,very_high,Alley,False
10246,WALNA WAY,40.390807,-79.993511,0.892929,very_high,Alley,False
17972,THAMES WAY,40.389728,-79.993203,0.892929,very_high,Alley,False
5548,BARRY ST,40.423316,-79.970116,0.890578,very_high,Local,False
7576,STELLA ST,40.42293,-79.969556,0.890578,very_high,Local,False
887,S 27TH ST,40.423905,-79.968557,0.890578,very_high,Local,False
5965,SHADY AVE,40.421851,-79.923952,0.889898,very_high,Local,False
2881,LANDVIEW RD,40.421656,-79.923631,0.889898,very_high,Local,False
16693,MARLAND WAY,40.389637,-79.99412,0.888662,very_high,Alley,False
9611,MARLAND WAY,40.390792,-79.994401,0.888662,very_high,Alley,False
16690,THAMES PL,40.389583,-79.995226,0.888662,very_high,Local,False
5905,MOUNTAIN AVE,40.416646,-79.977964,0.886142,very_high,Collector,True
6010,COX PL,40.370247,-79.918647,0.885808,very_high,Local,False
14284,OLLIE ST,40.369279,-79.919129,0.885808,very_high,Local,False
6591,ELWELL ST,40.369529,-79.916473,0.885808,very_high,Local,False
4207,ELWELL ST,40.369493,-79.91834,0.885808,very_high,Local,False
9569,ELWELL ST,40.369546,-79.919332,0.885808,very_high,Local,False
17324,COX AVE,40.370808,-79.918596,0.885808,very_high,Local,False
12631,COX AVE,40.369959,-79.917752,0.885808,very_high,Local,False
1489,PIONEER AVE,40.399617,-80.020697,0.883464,very_high,Collector,True
10232,OAKHURST ST,40.398334,-79.990663,0.881355,very_high,Local,False
11487,MIFFLIN RD,40.393193,-79.93323,0.880228,very_high,Local,True
10859,FORT PITT BRG RAMP,40.439545,-80.00934,0.880228,very_high,Principal Arterial,True
16638,SPRING ST,40.417043,-79.977507,0.879649,very_high,Local,True
14939,LUTZ AVE,40.389756,-79.984304,0.879298,very_high,Local,False
12576,COPPERFIELD AVE,40.395748,-79.98876,0.879298,very_high,Local,False
8263,FISHER ST,40.411241,-79.980357,0.879298,very_high,Local,False
7771,SLOSS ST,40.394199,-79.989846,0.879298,very_high,Local,False
2286,SULTAN WAY,40.400602,-80.014148,0.879298,very_high,Alley,False
19085,BEAUFORT CT,40.400203,-80.01888,0.879298,very_high,Local,False
8379,GLENARM AVE,40.394695,-80.016526,0.879298,very_high,Local,False
4892,CLIPPERT WAY,40.391748,-80.011844,0.879298,very_high,Alley,False
8346,HOBSON ST,40.388874,-80.010018,0.879298,very_high,Local,False
2351,MEREDITH ST,40.398235,-79.982062,0.879298,very_high,Local,False
11955,GEORGIA AVE,40.409661,-79.995307,0.879298,very_high,Local,False
15104,ASTEROID WAY,40.420599,-79.993255,0.871772,very_high,Alley,False
14332,CLIMAX ST,40.419975,-79.993922,0.871772,very_high,Local,False
7808,HELEN WAY,40.420576,-79.994222,0.871772,very_high,Alley,False
15493,HELEN WAY,40.419744,-79.994209,0.871772,very_high,Alley,False
7001,MOON WAY,40.420586,-79.943811,0.871772,very_high,Alley,False
17752,INDUSTRY ST,40.420819,-79.993937,0.871772,very_high,Local,False
1158,LOYAL WAY,40.419554,-79.994432,0.871772,very_high,Local,False
832,INDUSTRY ST,40.420841,-79.992418,0.871772,very_high,Local,True
8307,LOYAL WAY,40.419545,-79.994955,0.871772,very_high,Local,False
1345,PROCTOR WAY,40.420394,-79.99393,0.871772,very_high,Local,False
1266,CLIMAX ST,40.419967,-79.994441,0.871772,very_high,Local,False
8217,INDUSTRY ST,40.420823,-79.99345,0.871772,very_high,Local,False
13574,BIGELOW ST,40.420235,-79.94389,0.871772,very_high,Local,False
3063,HELEN WAY,40.42016,-79.994215,0.871772,very_high,Alley,False
17920,PROCTOR WAY,40.420414,-79.993437,0.871772,very_high,Local,False
7745,WALTER ST,40.419738,-79.994724,0.871772,very_high,Local,False
17279,SPRING ST,40.417182,-79.977671,0.871772,very_high,Collector,True
8987,ALLEN ST,40.420596,-79.993713,0.871772,very_high,Local,False
16636,BETHESDA ST,40.383213,-79.981557,0.871184,very_high,Local,False
19276,FORT PITT BLVD,40.439426,-80.008224,0.86905,very_high,Principal Arterial,True
4290,FORT DUQUESNE BRG RAMP,40.440505,-80.008879,0.86905,very_high,Principal Arterial,True
4242,MASCOT WAY,40.397955,-80.01888,0.86897,very_high,Alley,False
7644,STELLA WAY,40.42257,-79.968734,0.86757,very_high,Local,False
1756,MANTON WAY,40.421315,-79.992601,0.86757,very_high,Local,True
13639,SHELLY ST,40.42264,-79.968177,0.86757,very_high,Local,False
3297,SHELLY ST,40.422886,-79.968585,0.86757,very_high,Local,False
19177,FAIRHOPE ST,40.388942,-79.981346,0.863675,very_high,Alley,False
15595,YALE DR,40.390059,-79.993957,0.863675,very_high,Local,False
4180,LUCINA AVE,40.389572,-79.992753,0.863675,very_high,Local,False
16787,LUCINA AVE,40.389975,-79.992854,0.863675,very_high,Local,False
1496,FAIRLAND ST,40.389748,-79.994631,0.863675,very_high,Local,False
1481,YALE DR,40.389932,-79.995138,0.863675,very_high,Local,False
5465,YALE DR,40.389995,-79.994408,0.863675,very_high,Local,False
13855,WAYSIDE ST,40.388648,-79.992705,0.863675,very_high,Alley,False
4162,WAYSIDE ST,40.388266,-79.994154,0.863675,very_high,Alley,False
2359,WAYSIDE ST,40.38857,-79.993183,0.863675,very_high,Alley,False
6647,CARRICK AVE,40.390262,-79.98171,0.863675,very_high,Local,False
1216,WAYSIDE ST,40.388461,-79.993591,0.863675,very_high,Alley,False
2831,CARRICK AVE,40.388668,-79.982642,0.863675,very_high,Local,False
6733,YALE DR,40.39019,-79.993094,0.863675,very_high,Local,False
17790,WOODWARD AVE,40.404624,-80.017177,0.863592,very_high,Local,False
13713,MAYTIDE ST,40.384373,-79.980763,0.863592,very_high,Collector,True
9055,W CHERRYHILL ST,40.397898,-79.990112,0.863592,very_high,Local,False
1551,BROOKLINE BLVD,40.392076,-80.014195,0.863592,very_high,Collector,True
6439,SUMNER ST,40.42139,-79.969917,0.862623,very_high,Local,False
1019,MANTON WAY,40.421311,-79.993455,0.862623,very_high,Local,False
6734,SUMNER ST,40.420974,-79.969335,0.862623,very_high,Local,False
9382,OAKLEY WAY,40.421667,-79.969547,0.857298,very_high,Local,False
6519,ORKNEY WAY,40.4215,-79.96834,0.857298,very_high,Local,False
8868,OAKLEY WAY,40.421863,-79.969458,0.857298,very_high,Local,False
4619,OAKLEY WAY,40.421386,-79.969682,0.857298,very_high,Local,False
18323,OAKLEY WAY,40.422116,-79.969343,0.857298,very_high,Local,False
4243,NEWETT ST,40.396512,-79.991062,0.855975,very_high,Local,False
10548,DEELY ST,40.423569,-79.934593,0.845652,very_high,Local,False
18926,RUPPLE WAY,40.424572,-79.940677,0.845652,very_high,Alley,False
1006,BEEHNER RD,40.424067,-79.934263,0.845652,very_high,Local,True
14824,TRAYNOR WAY,40.423226,-79.935356,0.845652,very_high,Alley,False
17705,DEELY ST,40.423527,-79.933968,0.845652,very_high,Local,False
8895,MELBOURNE ST,40.421895,-79.933097,0.845652,very_high,Local,False
14757,BEEHNER RD,40.423698,-79.934308,0.845652,very_high,Local,False
6419,ROSEMOOR ST,40.422598,-79.922363,0.845652,very_high,Local,False
3365,WALTER ST,40.421041,-79.994762,0.845652,very_high,Local,False
614,DEELY ST,40.423631,-79.93555,0.845652,very_high,Local,False
15368,SHADY AVE,40.422177,-79.923972,0.845652,very_high,Local,False
7786,GLENBURY ST,40.385444,-79.999977,0.841109,very_high,Local,False
3018,COX PL,40.370712,-79.916906,0.841109,very_high,Local,False
4764,LEOLYN ST,40.398738,-79.986048,0.841109,very_high,Local,False
18573,DUFFLAND ST,40.392078,-79.983026,0.841109,very_high,Local,False
18537,WOLFORD ST,40.397667,-80.018379,0.841109,very_high,Local,False
1210,GROVELAND ST,40.385521,-80.001213,0.841109,very_high,Local,False
7575,JOSEPHINE ST,40.423211,-79.967709,0.840801,very_high,Collector,True
637,DELTA ST,40.423143,-79.968455,0.840801,very_high,Local,False
16621,MCCORD ST,40.423424,-79.9692,0.840801,very_high,Local,False
6727,OAKLEY WAY,40.422935,-79.96896,0.840801,very_high,Local,False
9060,HOBSON ST,40.38855,-80.010408,0.837455,very_high,Local,False
4190,LA MARIDO ST,40.400245,-80.01395,0.830388,very_high,Local,False
16713,FERNHILL AVE,40.400939,-80.013333,0.830388,very_high,Local,False
4185,CHELTON AVE,40.387985,-80.012106,0.828742,very_high,Local,False
19127,WEST END BRG RAMP,40.448843,-80.026154,0.827281,very_high,Principal Arterial,True
3996,MISSION ST,40.422011,-79.96855,0.826346,very_high,Local,False
7014,BARRY ST,40.422233,-79.970659,0.826346,very_high,Local,False
1020,STROMBERG ST,40.421859,-79.969829,0.826346,very_high,Local,False
17771,MISSION ST,40.422459,-79.969917,0.826346,very_high,Local,False
1165,DICKMAN WAY,40.383966,-79.979724,0.825175,very_high,Alley,False
1234,BRIGGS ST,40.387268,-80.001141,0.822925,very_high,Local,False
16709,WHITED ST,40.394484,-80.012526,0.822925,very_high,Collector,True
9982,IGNATIOUS WAY,40.410894,-79.980261,0.822925,very_high,Alley,False
4841,LUNAR WAY,40.398132,-79.986282,0.822925,very_high,Alley,False
16675,AVA WAY,40.396529,-80.020398,0.822925,very_high,Alley,False
4860,LUTZ AVE,40.390681,-79.984822,0.822925,very_high,Local,False
14313,BRIGGS ST,40.386086,-79.999059,0.822925,very_high,Local,False
1125,SPINNEWEBER ST,40.381317,-79.990047,0.822925,very_high,Local,False
1280,MORTON ST,40.384827,-80.000575,0.822925,very_high,Local,False
5986,GAYLY WAY,40.40132,-80.014094,0.822925,very_high,Alley,False
2341,BERWIN AVE,40.396586,-80.017578,0.822925,very_high,Local,False
5844,INDUSTRY ST,40.420804,-79.994457,0.822438,very_high,Local,False
10178,PROCTOR WAY,40.420391,-79.99445,0.822438,very_high,Local,False
4823,WOODBOURNE AVE,40.394128,-80.023787,0.821499,very_high,Local,False
6574,FAIRLAND ST,40.389365,-79.994535,0.821328,very_high,Local,False
13764,QUEENSTON ST,40.389218,-79.994219,0.821328,very_high,Local,False
1252,QUEENSTON ST,40.389284,-79.993773,0.821328,very_high,Local,False
1300,QUEENSTON ST,40.389125,-79.994809,0.821328,very_high,Local,False
16225,YALE DR,40.390125,-79.99353,0.821328,very_high,Local,False
18046,WALTON AVE,40.390664,-79.993932,0.821328,very_high,Local,False
16692,WALTON AVE,40.389444,-79.99363,0.821328,very_high,Local,False
10738,QUEENSTON ST,40.38938,-79.993114,0.821328,very_high,Local,False
5470,WALTON AVE,40.389843,-79.993731,0.821328,very_high,Local,False
10238,WALTON AVE,40.388884,-79.993486,0.821328,very_high,Local,False
15517,FAIRLAND ST,40.388597,-79.99487,0.821328,very_high,Local,False
6741,W CARSON ST,40.444324,-80.028359,0.815847,very_high,Minor Arterial,True
7862,LIGHTHILL ST,40.448543,-80.02395,0.815847,very_high,Local,True
10864,CLIPPERT AVE,40.391643,-80.013548,0.811783,very_high,Local,False
12122,GLENROY ST,40.389687,-79.980697,0.811752,very_high,Local,False
16801,LUCINA AVE,40.389016,-79.992615,0.811752,very_high,Local,False
8427,E CARSON ST RAMP,40.393212,-79.933647,0.810531,very_high,Minor Arterial,True
7768,WOODBOURNE AVE,40.394778,-80.024676,0.808638,very_high,Local,True
5957,JILLSON AVE,40.394996,-80.025198,0.808638,very_high,Local,True
4863,BRIAR WAY,40.389534,-80.020252,0.808595,very_high,Alley,False
5392,HOBSON ST,40.388007,-80.011092,0.808595,very_high,Local,False
2863,PICNIC WAY,40.418552,-79.972247,0.808251,very_high,Alley,False
18344,LILLIAN WAY,40.418778,-79.992069,0.808251,very_high,Alley,False
696,ASTEROID WAY,40.419362,-79.99321,0.808251,very_high,Alley,False
9575,LOYAL WAY,40.4196,-79.991981,0.808251,very_high,Local,False
7809,PROCTOR WAY,40.420436,-79.992186,0.808251,very_high,Local,False
1159,LOYAL WAY,40.419575,-79.993416,0.808251,very_high,Local,False
14292,ASTEROID WAY,40.419768,-79.993219,0.808251,very_high,Alley,False
6753,OHIO RIVER BLVD,40.449044,-80.023122,0.807436,very_high,Principal Arterial,True
12713,FORT PITT BRG RAMP,40.440322,-80.009556,0.803976,very_high,Principal Arterial,True
15056,LIBERTY AVE RAMP,40.440078,-80.008863,0.803976,very_high,Principal Arterial,True
6090,FORT DUQUESNE BRG RAMP,40.440407,-80.009067,0.803976,very_high,Principal Arterial,True
1268,WELLINGTON WAY,40.420504,-79.971615,0.801199,very_high,Alley,False
15464,HELEN WAY,40.41933,-79.994197,0.801199,very_high,Alley,False
1190,LOYAL WAY,40.419555,-79.993914,0.801199,very_high,Local,False
6457,HELEN WAY,40.418853,-79.99418,0.801199,very_high,Alley,False
5456,FORDHAM AVE,40.38925,-80.020194,0.796096,very_high,Local,False
18258,WINTERBURN AVE,40.423984,-79.93981,0.794284,very_high,Collector,True
7810,LUSTER ST,40.42183,-79.922801,0.794284,very_high,Alley,False
16624,THEODOLITE WAY,40.423982,-79.935458,0.794284,very_high,Alley,True
16140,LOMAR WAY,40.421254,-79.923354,0.794284,very_high,Alley,False
14908,MCKINLEY ST,40.409681,-79.994301,0.788525,very_high,Local,False
13017,CLOVER ST,40.417246,-79.97138,0.785871,very_high,Local,False
8201,CHAMBERS WAY,40.419875,-79.944613,0.785871,very_high,Alley,False
7035,INDUSTRY ST,40.420804,-79.994983,0.785871,very_high,Local,False
722,MARLAND WAY,40.412159,-79.994914,0.782337,very_high,Alley,False
611,SHADY AVE,40.424034,-79.923945,0.780433,very_high,Local,False
13092,SHADY AVE,40.424379,-79.923927,0.780433,very_high,Local,False
16549,TAN WAY,40.425716,-79.940255,0.776701,very_high,Alley,True
15994,LILAC ST,40.424913,-79.933783,0.776701,very_high,Local,False
3394,SUN WAY,40.422824,-79.940153,0.776701,very_high,Alley,True
5832,ALVIN ST,40.424593,-79.948519,0.776701,very_high,Alley,False
14740,SHIELDS ST,40.423514,-79.94047,0.776701,very_high,Alley,False
16552,RUPPLE WAY,40.42472,-79.940052,0.776701,very_high,Alley,True
16490,THEODOLITE WAY,40.423865,-79.933768,0.776701,very_high,Alley,True
994,WINTERBURN AVE,40.4254,-79.939796,0.776701,very_high,Collector,True
11786,DEELY ST,40.423174,-79.932835,0.776701,very_high,Local,False
13905,W CHERRYHILL ST,40.397799,-79.990795,0.773332,very_high,Local,False
16814,MERRICK AVE,40.391914,-80.013123,0.773332,very_high,Local,False
12601,REEDSDALE ST,40.448645,-80.023806,0.771634,very_high,Collector,True
1229,NORTH POINT DR,40.448561,-80.024398,0.771634,very_high,Local,False
3697,HORNADAY RD,40.395999,-79.980994,0.770561,very_high,Local,False
4840,GALLION AVE,40.397094,-80.020035,0.770561,very_high,Local,False
8942,LEOLYN ST,40.399223,-79.98625,0.770561,very_high,Local,False
10607,LILLIAN ST,40.41874,-79.993394,0.76075,very_high,Local,False
8795,CLOVER ST,40.418776,-79.971113,0.76075,very_high,Local,False
2074,FREELAND ST,40.419192,-79.991959,0.76075,very_high,Local,False
7145,BERG ST,40.419635,-79.971664,0.76075,very_high,Local,False
2124,LILLIAN ST,40.41873,-79.99389,0.76075,very_high,Local,False
7639,LILLIAN ST,40.418722,-79.994408,0.76075,very_high,Local,False
18324,WALTER ST,40.418908,-79.994706,0.76075,very_high,Local,False
12420,ALLEN ST,40.419341,-79.993684,0.76075,very_high,Local,False
9522,ALLEN ST,40.419755,-79.993695,0.76075,very_high,Local,False
8812,CLOVER ST,40.419247,-79.971034,0.76075,very_high,Local,False
7612,SALISBURY ST,40.418781,-79.972398,0.76075,very_high,Local,False
853,ALLEN ST,40.418926,-79.993671,0.76075,very_high,Local,False
854,PATTERSON ST,40.419187,-79.971732,0.76075,very_high,Local,False
14369,CLIMAX ST,40.420023,-79.991985,0.76075,very_high,Local,False
4125,FREELAND ST,40.419141,-79.994417,0.76075,very_high,Local,False
13705,ELEANOR ST,40.419961,-79.97247,0.76075,very_high,Local,False
14955,BURHAM ST,40.420954,-79.970315,0.76075,very_high,Local,False
16525,WALTER ST,40.419321,-79.994715,0.76075,very_high,Local,False
3979,FREELAND ST,40.419135,-79.994944,0.76075,very_high,Local,False
815,LILLIAN ST,40.418717,-79.99493,0.76075,very_high,Local,False
16742,ALLEN ST,40.420174,-79.993702,0.76075,very_high,Local,False
7008,CLOVER ST,40.419003,-79.971076,0.76075,very_high,Local,False
15411,ELEANOR ST,40.419523,-79.972547,0.76075,very_high,Local,False
14190,SALISBURY ST,40.418701,-79.971586,0.76075,very_high,Local,False
13133,FREELAND ST,40.419151,-79.9939,0.76075,very_high,Local,False
6443,ELEANOR ST,40.418601,-79.972706,0.76075,very_high,Local,False
2073,FREELAND ST,40.419166,-79.9934,0.76075,very_high,Local,False
1381,CLIMAX ST,40.419993,-79.99342,0.76075,very_high,Local,False
18544,PIONEER AVE,40.394899,-80.024979,0.753046,very_high,Collector,True
18541,PIONEER AVE,40.395169,-80.024546,0.753046,very_high,Collector,True
7735,PIONEER AVE,40.394499,-80.025767,0.753046,very_high,Collector,True
17917,MERITT AVE,40.383606,-79.979965,0.749213,high,Local,False
11964,NICE WAY,40.384836,-79.980821,0.749213,high,Alley,False
3577,MT JOSEPH ST,40.397651,-79.991145,0.749213,high,Local,False
5218,CATON ST,40.423812,-79.922181,0.743932,high,Local,False
3324,SHADY AVE,40.423515,-79.924032,0.743932,high,Local,False
7909,BISCAYNE DR,40.387157,-79.983989,0.741242,high,Collector,True
14392,WADDINGTON AVE,40.396075,-80.028643,0.741242,high,Local,False
18482,THE BOULEVARD,40.401736,-79.983966,0.741242,high,Local,False
4791,THE BOULEVARD,40.401508,-79.985251,0.741242,high,Local,False
15504,CALLE AVE,40.407759,-79.999609,0.725523,high,Local,False
2340,STAPLETON ST,40.396161,-80.029125,0.725344,high,Local,False
10705,MARGARET ST,40.369384,-79.915593,0.724884,high,Local,False
16820,FORT PITT BRG RAMP,40.440443,-80.008356,0.723083,high,Principal Arterial,True
7814,BIGELOW ST,40.420543,-79.944524,0.719825,high,Local,False
8763,HALDANE ST,40.424333,-79.94301,0.707665,high,Local,False
4837,PA RT 837,40.392921,-79.932635,0.704233,high,Minor Arterial,True
10855,GREENLEAF ST,40.442591,-80.02877,0.703403,high,Collector,True
4115,ALMEDA ST,40.403468,-79.939365,0.703096,high,Local,False
15394,LILAC ST,40.42307,-79.926906,0.702062,high,Local,False
7117,LUDWICK ST,40.422835,-79.925021,0.702062,high,Local,False
15392,LILAC ST,40.423176,-79.925434,0.702062,high,Local,False
16099,SALINE ST,40.422292,-79.926226,0.702062,high,Local,False
3978,LILAC ST,40.423248,-79.924569,0.702062,high,Local,False
2765,LILAC ST,40.423107,-79.92602,0.702062,high,Local,False
7063,SHADY AVE,40.424739,-79.923916,0.702062,high,Local,False
18568,I-279,40.493746,-80.012995,0.70201,high,Principal Arterial,True
2940,I-279 HOV,40.494733,-80.012085,0.70201,high,Principal Arterial,True
9001,MCKNIGHT RD RAMP,40.494811,-80.011693,0.70201,high,Principal Arterial,True
17455,RIVERTON ST,40.392671,-79.934349,0.701858,high,Minor Arterial,True
13262,GLENWOOD BRG RAMP,40.392287,-79.93471,0.701858,high,Minor Arterial,True
13698,BALDWIN RD RAMP,40.392191,-79.934111,0.701858,high,Minor Arterial,True
16208,BALDWIN RD RAMP,40.391815,-79.934553,0.701858,high,Minor Arterial,True
4117,PA RT 837,40.392421,-79.934249,0.701858,high,Minor Arterial,True
7859,BALDWIN RD RAMP,40.392306,-79.934826,0.701858,high,Minor Arterial,True
4717,GLENWOOD BRG RAMP,40.392805,-79.934247,0.701858,high,Minor Arterial,True
11427,GLENWOOD BRG RAMP,40.391961,-79.93375,0.701858,high,Minor Arterial,True
5339,CARSON ST RAMP,40.392054,-79.933635,0.701858,high,Minor Arterial,True
5373,SPRING ST,40.417319,-79.977848,0.701179,high,Collector,True
13857,W CARSON ST,40.443367,-80.026303,0.699621,high,Minor Arterial,True
2866,EUGENIE WAY,40.419731,-79.99525,0.697798,high,Alley,False
6031,CLIMAX ST,40.419961,-79.994949,0.697798,high,Local,False
7002,EUGENIE WAY,40.419309,-79.995238,0.697798,high,Alley,False
5437,WALTER ST,40.420155,-79.994737,0.697798,high,Local,False
13921,W CARSON ST,40.444297,-80.027906,0.697513,high,Minor Arterial,True
12568,GEORGIA AVE,40.416616,-79.995148,0.694959,high,Local,False
10154,WINDFALL WAY,40.385154,-79.978977,0.692855,high,Alley,False
15480,REPEAL WAY,40.394838,-80.017641,0.692855,high,Alley,False
6131,TEXOLA WAY,40.390278,-80.02085,0.692855,high,Alley,False
18401,MELODY ST,40.383079,-79.979579,0.692855,high,Alley,False
13136,WINDFALL WAY,40.384675,-79.978624,0.692855,high,Alley,True
19188,OAKRIDGE ST,40.390016,-80.01448,0.692855,high,Local,False
9004,ROSSMORE AVE,40.394355,-80.017699,0.692855,high,Local,False
14926,HOBSON ST,40.388283,-80.010751,0.692855,high,Local,False
12070,DIEHL AVE,40.39092,-79.979825,0.681923,high,Local,False
14169,ELEANOR ST,40.41906,-79.972626,0.681169,high,Local,False
3550,COBDEN ST,40.420064,-79.971511,0.681169,high,Local,False
18398,ELEANOR ST,40.418236,-79.972765,0.681169,high,Local,False
831,ARLINGTON AVE,40.421108,-79.991983,0.679884,high,Collector,True
14295,GEORGIA AVE,40.416253,-79.99513,0.675851,high,Local,False
13755,HOBSON ST,40.387721,-80.011434,0.675218,high,Local,False
3501,LA MOINE ST,40.402117,-80.009533,0.673749,high,Local,False
16091,FITCH WAY,40.39491,-80.020715,0.671732,high,Alley,False
16780,CREEDMOOR AVE,40.391542,-80.015549,0.671732,high,Collector,True
14315,BERKSHIRE AVE,40.388406,-80.014283,0.671732,high,Local,False
2260,OLEATHA WAY,40.394019,-80.017931,0.671732,high,Alley,False
3489,ONYX WAY,40.40865,-79.992944,0.671732,high,Alley,False
10116,WINDFALL WAY,40.383895,-79.978254,0.671732,high,Alley,False
5455,FORDHAM AVE,40.391213,-80.022907,0.671732,high,Local,False
1428,AIDYL AVE,40.395672,-80.027673,0.671732,high,Local,False
8311,WINDFALL WAY,40.384261,-79.9783,0.671732,high,Alley,True
1612,PARKDALE ST,40.382568,-79.98262,0.671732,high,Local,False
1655,WILLIAM ST,40.428357,-79.998785,0.670929,high,Local,False
1475,SECTION WAY,40.399343,-80.018777,0.670258,high,Alley,False
18527,BERWIN AVE,40.398473,-80.020157,0.670258,high,Local,False
10728,BERWIN AVE,40.398188,-80.019762,0.670258,high,Local,False
11366,GLENWOOD AVE,40.404188,-79.939003,0.662918,high,Local,False
14864,GREENFIELD AVE,40.425321,-79.943492,0.662008,high,Collector,True
4020,KAERCHER ST,40.424949,-79.944159,0.662008,high,Local,False
18566,OLLIE ST,40.367319,-79.91856,0.660295,high,Local,False
17482,THE BOULEVARD,40.401251,-79.987279,0.654968,high,Local,False
8317,CALLE AVE,40.407743,-80.000159,0.653837,high,Local,False
17989,PIONEER AVE,40.395336,-80.030574,0.653837,high,Local,True
18459,PIONEER AVE,40.394963,-80.029573,0.653837,high,Collector,True
13311,BISCAYNE DR,40.386711,-79.983992,0.653837,high,Collector,True
7758,FORDYCE ST,40.408572,-80.000502,0.653837,high,Local,False
10287,WADDINGTON AVE,40.395587,-80.029767,0.653837,high,Local,False
15074,BECKS RUN RD,40.387572,-79.983696,0.653837,high,Collector,True
13226,BERWIN AVE,40.398764,-80.02056,0.648207,high,Local,False
2935,MONTCLAIR ST,40.42084,-79.931599,0.643001,high,Local,False
3019,KINLEY AVE,40.374736,-79.91403,0.641557,high,Local,False
10170,REEDSDALE ST,40.4486,-80.023233,0.639475,high,Principal Arterial,True
3634,HALCHESS ST,40.366783,-79.908579,0.637864,high,Local,False
4281,COX AVE,40.366917,-79.917431,0.637864,high,Local,False
18059,ANTARCTIC WAY,40.367225,-79.917895,0.637864,high,Alley,False
12710,DILLER AVE,40.374971,-79.91315,0.637864,high,Local,False
4810,FLIGHT WAY,40.367795,-79.916912,0.637864,high,Alley,False
3020,HALCHESS ST,40.367139,-79.908853,0.637864,high,Local,False
8994,COX AVE,40.367556,-79.917445,0.637864,high,Local,False
13205,RODGERS ST,40.367973,-79.917151,0.637864,high,Local,False
1782,S MAIN ST,40.443622,-80.027974,0.634627,high,Minor Arterial,True
1549,BROOKLINE BLVD,40.394297,-80.020768,0.633478,high,Collector,True
6480,GREENFIELD AVE,40.425833,-79.941207,0.632665,high,Collector,True
6028,I-279 RAMP,40.493648,-80.011677,0.631578,high,Principal Arterial,True
12777,MCKNIGHT RD,40.493275,-80.011458,0.631578,high,Principal Arterial,True
13895,EVERGREEN RD,40.492597,-80.011256,0.631578,high,Minor Arterial,True
1649,I-279 HOV,40.493,-80.010598,0.631578,high,Principal Arterial,True
14271,CLOVER ST,40.419731,-79.970948,0.626151,high,Local,False
5993,CLOVER ST,40.420654,-79.97074,0.626151,high,Local,False
17931,EVERGREEN RD RAMP,40.492832,-80.009709,0.620153,high,Principal Arterial,True
16754,STANTON AVE,40.480763,-79.935456,0.619975,high,Collector,True
12242,CLAYTON AVE,40.463244,-80.010934,0.618584,high,Local,False
10253,FREDANNA ST,40.367388,-79.907889,0.618458,high,Local,False
18007,SCORER ST,40.374727,-79.914672,0.618458,high,Local,False
16235,COSMOS WAY,40.366689,-79.908004,0.618458,high,Alley,False
1589,FREDANNA ST,40.366976,-79.907695,0.618458,high,Local,False
7292,CLIPPERT AVE,40.391508,-80.014362,0.616473,high,Local,False
11921,FLATBUSH AVE,40.394204,-80.019385,0.616473,high,Local,False
13835,CLIPPERT AVE,40.391364,-80.014896,0.616473,high,Local,False
7767,GALLION AVE,40.395118,-80.017301,0.616473,high,Local,False
10723,FREEDOM AVE,40.387923,-80.013168,0.616473,high,Local,False
1063,DILLER PL,40.375756,-79.914176,0.61423,high,Local,False
3635,COMMISSION WAY,40.366483,-79.918969,0.61423,high,Alley,False
5493,DELLAGLEN AVE,40.366964,-79.919666,0.61423,high,Local,False
15648,BALTIMORE ST,40.366673,-79.919951,0.61423,high,Local,False
4909,OFFICIAL WAY,40.366232,-79.920117,0.61423,high,Local,False
6397,BEECHWOOD BLVD,40.424001,-79.920182,0.614071,high,Minor Arterial,True
18906,MONITOR ST,40.425243,-79.922384,0.614071,high,Local,False
2800,BEECHWOOD BLVD,40.424566,-79.920098,0.614071,high,Minor Arterial,True
7280,BEECHWOOD BLVD,40.422507,-79.918027,0.614071,high,Minor Arterial,True
9468,EDWARDS WAY,40.423723,-79.967814,0.611982,high,Local,False
1808,OHIO RIVER BLVD,40.449821,-80.025218,0.602612,high,Principal Arterial,True
3447,OHIO RIVER BLVD RAMP,40.44986,-80.025565,0.602612,high,Principal Arterial,True
17420,LOUGEAN AVE,40.374551,-79.912807,0.602119,high,Local,False
15557,MANSION ST,40.404228,-79.939891,0.600022,high,Local,False
9711,MCKEES ROCKS BRG,40.478221,-80.044954,0.599331,high,Principal Arterial,True
18439,ROCKLAND AVE,40.413558,-80.020233,0.597212,high,Local,False
16288,GRIMES AVE,40.416673,-79.993093,0.597212,high,Local,False
10117,GRIMES AVE,40.416302,-79.993082,0.597212,high,Local,False
11302,CHARLES ST,40.416496,-79.994152,0.597212,high,Local,False
14964,STEBBINS AVE,40.390763,-80.021964,0.5965,high,Local,False
1497,STEBBINS AVE,40.390474,-80.022324,0.5965,high,Local,False
1353,OFFICIAL WAY,40.36751,-79.920462,0.594201,high,Local,False
6089,OFFICIAL WAY,40.367084,-79.920203,0.594201,high,Local,False
13788,SESSION ST,40.367732,-79.920438,0.594201,high,Local,False
17910,COOLEY WAY,40.368332,-79.9192,0.594201,high,Alley,False
10696,MAYTIDE ST,40.384453,-79.978417,0.592578,high,Collector,True
4802,STEBBINS AVE,40.391065,-80.021588,0.592578,high,Local,False
1375,CLAUS AVE,40.383362,-79.97905,0.592578,high,Local,False
14420,CHELTON AVE,40.39071,-80.015869,0.592578,high,Local,False
12035,OAKRIDGE ST,40.38971,-80.014859,0.592578,high,Local,False
13728,MCKINLEY ST,40.409036,-79.992756,0.592578,high,Local,False
1336,HAZELDELL ST,40.391162,-79.985616,0.592578,high,Local,False
12120,LILAC ST,40.424367,-79.931789,0.588808,high,Local,False
2071,LILAC ST,40.423316,-79.922405,0.588808,high,Local,False
15439,THEODOLITE WAY,40.423509,-79.932711,0.588808,high,Alley,False
6398,FRANK ST,40.423632,-79.933558,0.588808,high,Local,False
11372,LANDVIEW RD,40.421854,-79.921245,0.588808,high,Local,False
19003,FRANK ST,40.425585,-79.931649,0.588808,high,Local,False
15576,FRANK ST,40.424396,-79.932422,0.588808,high,Local,False
9961,GREENFIELD AVE,40.423704,-79.932141,0.588808,high,Collector,True
1269,BIRCHWOOD AVE,40.421289,-79.921866,0.588808,high,Local,False
2180,FRANK ST,40.42408,-79.932631,0.588808,high,Local,True
16154,MCKNIGHT RD RAMP,40.494111,-80.010939,0.586009,high,Principal Arterial,True
18475,FORT DUQUESNE BRG RAMP OUT,40.439443,-80.007913,0.582184,high,Principal Arterial,True
1793,SCORER ST,40.374117,-79.913805,0.581805,high,Local,False
2395,SCORER ST,40.373878,-79.913442,0.581805,high,Local,False
9662,MELODY ST,40.382682,-79.979473,0.581608,high,Alley,False
16055,CLAUS AVE,40.382943,-79.981893,0.581608,high,Local,False
3544,MCBRIDE AVE,40.370079,-79.908093,0.580654,high,Local,False
11484,PARTRIDGE WAY,40.409909,-79.993952,0.58036,high,Alley,False
15363,GORGAS ST,40.410641,-79.981095,0.58036,high,Local,False
7205,MORTON ST,40.383459,-79.999917,0.58036,high,Local,False
2813,TRANSVERSE AVE,40.404045,-79.984904,0.58036,high,Local,False
7193,TRANSVERSE AVE,40.40359,-79.984646,0.58036,high,Local,False
8950,HAREX WAY,40.388198,-80.014785,0.58036,high,Alley,False
7696,CAMFIELD ST,40.408297,-79.998269,0.58036,high,Local,False
11423,NOX WAY,40.388589,-80.009636,0.58036,high,Alley,False
6433,DUART WAY,40.41053,-79.994127,0.58036,high,Alley,False
4184,BELPLAIN ST,40.385351,-79.979869,0.58036,high,Local,False
10322,NICE WAY,40.384879,-79.979645,0.58036,high,Alley,False
8177,CATHEDRAL AVE,40.411957,-79.981331,0.58036,high,Local,False
16777,DELLROSE ST,40.398552,-79.989395,0.58036,high,Local,False
16791,SOUTH WAY,40.400425,-79.983797,0.58036,high,Alley,False
1340,ABNER AVE,40.408626,-79.997436,0.58036,high,Local,False
10731,HARTRANFT ST,40.401836,-80.014578,0.58036,high,Local,False
1182,YALE DR,40.38865,-79.991574,0.58036,high,Local,False
10187,GEORGIA AVE,40.410057,-79.995123,0.58036,high,Local,False
7184,AARON AVE,40.388057,-80.000328,0.58036,high,Local,False
5471,THISTLE WAY,40.389927,-80.018433,0.58036,high,Alley,False
3053,E AGNEW AVE,40.396711,-79.981762,0.58036,high,Local,False
11928,HUFF WAY,40.387519,-80.00036,0.58036,high,Alley,False
17892,HOBSON ST,40.389214,-80.009596,0.58036,high,Local,False
17978,HARTRANFT ST,40.399881,-80.014665,0.58036,high,Local,False
16148,HOMEHURST AVE,40.375597,-80.003171,0.58036,high,Local,False
1133,CORTINA WAY,40.386601,-79.999001,0.58036,high,Alley,False
13929,REIFERT ST,40.40894,-79.994774,0.58036,high,Local,False
7134,AVA WAY,40.396246,-80.020728,0.58036,high,Alley,False
15523,HARTRANFT ST,40.401475,-80.014594,0.58036,high,Local,False
11363,GEORGIA AVE,40.408853,-79.995684,0.58036,high,Local,False
16689,NEWETT ST,40.39693,-79.989501,0.58036,high,Local,False
3338,GORGAS ST,40.411001,-79.981117,0.58036,high,Local,False
10727,E CHERRYHILL ST,40.398843,-79.986872,0.58036,high,Local,False
9559,HARTRANFT ST,40.400771,-80.014612,0.58036,high,Local,False
2712,SUNCREST ST,40.411403,-79.996587,0.58036,high,Local,False
14897,ALSTEAD ST,40.384321,-80.001212,0.58036,high,Local,False
4177,E CHERRYHILL ST,40.398566,-79.988375,0.58036,high,Local,True
9107,MT JOSEPH ST,40.39816,-79.991285,0.58036,high,Local,False
11888,VINELAND ST,40.387133,-79.999,0.58036,high,Local,False
12047,BELLE ISLE AVE,40.400076,-80.022665,0.58036,high,Local,False
8982,ONYX WAY,40.409387,-79.994603,0.58036,high,Alley,False
7753,SINTON AVE,40.387875,-79.990522,0.58036,high,Local,False
1757,MT JOSEPH ST,40.397022,-79.990815,0.58036,high,Local,False
16694,VINELAND ST,40.387767,-80.000265,0.58036,high,Local,False
7729,MORTON ST,40.38421,-80.000518,0.58036,high,Local,False
15519,DABNEY WAY,40.399071,-80.022082,0.58036,high,Alley,True
4179,WESTMONT AVE,40.397458,-79.989471,0.58036,high,Local,False
6454,LAPEER WAY,40.404987,-80.015639,0.58036,high,Alley,True
12606,WINDFALL WAY,40.385654,-79.979565,0.58036,high,Alley,False
19078,YALE DR,40.389927,-79.991988,0.58036,high,Local,False
2906,HARTRANFT ST,40.400396,-80.014627,0.58036,high,Local,False
6055,PLATEAU ST,40.396743,-79.991711,0.58036,high,Local,False
4178,ROSSMORE AVE,40.396547,-80.020715,0.58036,high,Local,False
1227,E CHERRYHILL ST,40.398937,-79.986376,0.58036,high,Local,False
13757,UNNAMED WAY,40.408586,-79.998845,0.58036,high,Alley,False
5476,ALRIES ST,40.400276,-79.982713,0.58036,high,Local,False
17314,ANGLO WAY,40.4039,-79.98307,0.58036,high,Alley,False
11350,HARTRANFT ST,40.401127,-80.014612,0.58036,high,Local,False
14938,NEWETT ST,40.397084,-79.988892,0.58036,high,Local,False
19065,LUNAR WAY,40.399283,-79.986782,0.58036,high,Alley,False
3323,GORGAS ST,40.411714,-79.981154,0.58036,high,Local,False
10770,WILBUR ST,40.408694,-79.99601,0.58036,high,Alley,False
16655,CAMFIELD ST,40.408836,-79.998296,0.58036,high,Local,False
8209,WALDE ST,40.410486,-79.98129,0.58036,high,Local,False
5933,PARKLYN ST,40.384376,-80.001999,0.58036,high,Local,False
13754,COVERT ST,40.393788,-79.989516,0.58036,high,Alley,False
3572,BERWIN AVE,40.39905,-80.020955,0.58036,high,Local,False
15970,IGNATIOUS WAY,40.410918,-79.97905,0.58036,high,Alley,False
3441,CRYSLER ST,40.403198,-80.015351,0.58036,high,Local,True
1179,COPPERFIELD AVE,40.395507,-79.989446,0.58036,high,Local,False
13161,NEWETT ST,40.397238,-79.988349,0.58036,high,Local,True
7827,ALRIES ST,40.399626,-79.986019,0.58036,high,Local,False
6709,POPLARGROVE ST,40.396401,-79.985691,0.58036,high,Local,False
7096,GORGAS ST,40.411358,-79.981139,0.58036,high,Local,False
7775,ALCOVE WAY,40.402184,-79.984814,0.58036,high,Alley,False
10813,NEWETT ST,40.396387,-79.991605,0.58036,high,Local,False
3678,DELLROSE ST,40.396571,-79.988206,0.58036,high,Local,False
15969,FARINA WAY,40.411792,-79.978517,0.58036,high,Alley,False
968,FISHER ST,40.411332,-79.978727,0.58036,high,Local,False
16852,HORNING ST,40.381841,-79.989031,0.58036,high,Local,False
15500,OAKHURST WAY,40.396246,-79.989399,0.58036,high,Alley,False
19156,NEWETT ST,40.396763,-79.990124,0.58036,high,Local,False
13347,BALDWIN RD RAMP,40.393762,-79.935083,0.578451,high,Minor Arterial,True
1513,WHITED ST,40.396231,-79.99843,0.578451,high,Collector,True
12663,UNDERWOOD ST,40.383529,-79.995292,0.578451,high,Local,True
10313,SAW MILL RUN BLVD,40.395804,-79.997801,0.578451,high,Minor Arterial,True
9626,BALDWIN RD RAMP,40.391308,-79.934713,0.578451,high,Minor Arterial,True
5538,MOBILE HOME CT,40.395695,-79.998781,0.578451,high,Private,True
18050,E CARSON ST,40.394261,-79.93411,0.578451,high,Collector,True
16048,MURRAY AVE,40.424055,-79.928383,0.577227,high,Local,False
6466,BEECHWOOD BLVD,40.423945,-79.927288,0.577227,high,Minor Arterial,True
13596,BEECHWOOD BLVD,40.422575,-79.927694,0.577227,high,Minor Arterial,True
8856,BEECHWOOD BLVD,40.42322,-79.919647,0.577227,high,Minor Arterial,True
715,MONITOR ST,40.425344,-79.92435,0.577227,high,Local,False
16282,MURRAY AVE,40.422512,-79.9288,0.577227,high,Local,False
16113,FORT PITT BRG,40.438894,-80.011238,0.574384,high,Principal Arterial,True
8336,FORT PITT BRG,40.438939,-80.011233,0.574384,high,Principal Arterial,True
3610,BALDWIN RD RAMP,40.391091,-79.933915,0.572568,high,Minor Arterial,True
1527,BALDWIN RD,40.39355,-79.933538,0.572568,high,Collector,True
10686,WEST END BRG RAMP,40.449357,-80.023296,0.572356,high,Principal Arterial,True
14702,S LANG AVE,40.446718,-79.905788,0.571905,high,Local,False
5860,TILBURY AVE,40.429485,-79.918094,0.571905,high,Local,False
18234,REYNOLDS ST,40.447426,-79.906142,0.571905,high,Local,False
15638,WILKINS AVE,40.4447,-79.915986,0.571905,high,Collector,True
5526,KINSMAN RD,40.445165,-79.914239,0.571905,high,Local,False
16810,BARNSDALE ST,40.444569,-79.915528,0.571905,high,Local,True
11713,S LANG AVE,40.447885,-79.905333,0.571905,high,Local,False
5956,VERBENA WAY,40.395095,-80.023899,0.571823,high,Alley,False
14367,EDOM WAY,40.383113,-79.978011,0.571823,high,Alley,False
5425,BROADWAY AVE,40.402524,-80.030939,0.571823,high,Collector,True
14296,ALUMNI WAY,40.39503,-80.02567,0.571823,high,Alley,False
1215,VERBENA WAY,40.394798,-80.024269,0.571823,high,Alley,True
6151,CATALPA ST,40.406501,-80.025603,0.571823,high,Local,False
13928,WATERMAN AVE,40.391203,-79.97801,0.571823,high,Local,False
10895,TEAROSE WAY,40.391956,-80.025978,0.571823,high,Alley,False
14796,DUART WAY,40.410209,-79.992239,0.571823,high,Alley,False
15554,WATERMAN AVE,40.391203,-79.977465,0.571823,high,Local,False
3580,JILLSON AVE,40.395316,-80.025515,0.571823,high,Local,True
12563,PARTRIDGE WAY,40.409392,-79.992426,0.571823,high,Alley,False
5386,RUTHERFORD AVE,40.408249,-80.026405,0.571823,high,Local,False
9612,ARDSLEY AVE,40.391697,-80.024002,0.571823,high,Local,False
2960,BERKSHIRE AVE,40.39536,-80.023883,0.571823,high,Local,True
8413,VIADUCT WAY,40.391843,-80.024537,0.571823,high,Alley,False
16188,TRELONA WAY,40.390404,-80.016248,0.571823,high,Alley,False
7821,UNNAMED97AB WAY,40.393915,-80.028279,0.571823,high,Private,False
16879,BERKSHIRE AVE,40.394701,-80.022974,0.571823,high,Local,False
13083,TONOPAH AVE,40.407032,-80.025468,0.571823,high,Local,False
10210,EDGEVALE AVE,40.395364,-80.026843,0.571823,high,Local,True
7080,ALTURIA ST,40.406668,-80.023321,0.571823,high,Local,False
8350,MAKARY WAY,40.39183,-79.97684,0.571823,high,Alley,False
16711,WATERMAN AVE,40.39123,-79.97845,0.571823,high,Local,False
13825,FORDHAM AVE,40.392138,-80.024184,0.571823,high,Local,False
852,SHIRAS AVE,40.403919,-80.030147,0.571823,high,Local,False
6548,AIDYL AVE,40.39498,-80.027016,0.571823,high,Local,False
6652,NOVEL WAY,40.390675,-79.977784,0.571823,high,Alley,False
16837,CASTLEGATE AVE,40.39196,-80.025132,0.571823,high,Local,False
8425,DELLROSE ST,40.390042,-79.986709,0.571823,high,Local,False
9124,W CARSON ST,40.444043,-80.027937,0.570315,high,Minor Arterial,True
17300,ELEANOR ST,40.420401,-79.972378,0.569908,high,Local,False
17284,KENILWORTH ST,40.394807,-80.02832,0.567198,high,Local,False
1298,ARDSLEY AVE,40.390785,-80.025107,0.567198,high,Local,False
12110,LIMORE WAY,40.391652,-80.027028,0.567198,high,Alley,False
4246,VIADUCT WAY,40.392227,-80.025082,0.567198,high,Alley,False
17174,SHIRAS AVE,40.403914,-80.029833,0.567198,high,Local,False
19012,RIDGEWAY ST,40.45557,-79.965233,0.566268,high,Alley,True
12102,BIGELOW BLVD,40.455938,-79.965472,0.566268,high,Principal Arterial,True
1451,HERRON AVE,40.456049,-79.96571,0.566268,high,Collector,True
16627,UNNAMED87R88CD WAY,40.423214,-79.920388,0.564169,high,Private,False
10064,DELEVAN ST,40.423334,-79.931784,0.564169,high,Local,False
17126,MCCASLIN ST,40.423319,-79.936521,0.564169,high,Local,False
4152,TESLA WAY,40.42156,-79.936137,0.564169,high,Alley,False
17820,KENNEBEC ST,40.425508,-79.933035,0.564169,high,Local,False
694,GLEN LYTLE RD,40.423084,-79.936925,0.564169,high,Local,False
2733,NORFOLK ST,40.422146,-79.932457,0.564169,high,Local,False
13598,DELEVAN ST,40.422989,-79.932036,0.564169,high,Local,False
7762,BEEHNER RD,40.422497,-79.935638,0.564169,high,Local,False
4214,LORETTA ST,40.42122,-79.936213,0.564169,high,Local,False
3375,FRANK ST,40.424927,-79.932067,0.564169,high,Local,False
7763,MCCASLIN ST,40.422168,-79.936922,0.564169,high,Local,False
16788,VIADUCT WAY,40.3896,-80.021446,0.560859,high,Alley,False
2396,FORDHAM AVE,40.389007,-80.019858,0.560859,high,Local,False
10121,HIGHNOTE WAY,40.403172,-79.9865,0.559587,high,Alley,False
13644,NORTHERN WAY,40.4045,-79.984451,0.559587,high,Alley,False
7946,W WOODFORD AVE,40.393323,-79.988646,0.559587,high,Local,False
12482,TRANSVERSE AVE,40.404449,-79.985132,0.559587,high,Local,False
3703,MIFFLIN RD,40.37168,-79.916177,0.558986,high,Minor Arterial,True
8375,GRIMES AVE,40.410102,-79.993315,0.556798,high,Local,False
12608,GILBOA WAY,40.388958,-79.975477,0.556798,high,Alley,False
4773,BELPLAIN ST,40.385508,-79.978955,0.556798,high,Local,True
4925,STEWART AVE,40.382228,-79.983248,0.556798,high,Local,False
17434,MELODY ST,40.382243,-79.979261,0.556798,high,Alley,False
14258,EDOM WAY,40.382973,-79.978873,0.556798,high,Alley,False
16056,MARS WAY,40.382937,-79.982417,0.556798,high,Alley,False
3646,STEWART AVE,40.38243,-79.982816,0.556798,high,Local,False
12597,TRELONA WAY,40.388786,-80.014003,0.556798,high,Alley,False
2407,FAME WAY,40.381911,-79.982078,0.556798,high,Alley,False
7918,SHADY AVE,40.430255,-79.920032,0.556547,high,Local,False
11943,ROMANCE WAY,40.401019,-79.985075,0.555521,high,Alley,False
7871,ROYAL WAY,40.386577,-80.016666,0.555521,high,Alley,False
14294,NEWLYNN ST,40.38327,-80.001296,0.555521,high,Local,False
1222,TRANSVERSE AVE,40.402593,-79.984061,0.555521,high,Local,False
7129,BANTAM WAY,40.403364,-80.015047,0.555521,high,Alley,False
4740,NEWLYNN ST,40.383573,-80.00071,0.555521,high,Local,False
5235,GEORGIA AVE,40.410807,-79.994751,0.555521,high,Local,False
7228,BELLE ISLE AVE,40.400104,-80.023414,0.555521,high,Local,False
16668,TRANSVERSE AVE,40.403132,-79.984379,0.555521,high,Local,False
18630,MOSSROSE WAY,40.383097,-79.99906,0.555521,high,Alley,False
17720,GRIMES AVE,40.411709,-79.992859,0.555521,high,Local,False
16721,FITCH WAY,40.392253,-80.016432,0.555521,high,Alley,False
7778,CIVIC WAY,40.386648,-80.014236,0.555521,high,Alley,False
2874,BRAID WAY,40.387781,-79.999188,0.555521,high,Alley,False
946,BLAZER WAY,40.403928,-80.017981,0.555521,high,Alley,False
9609,METZ WAY,40.398894,-80.017335,0.555521,high,Alley,False
12723,HORNING ST,40.381982,-79.991895,0.555521,high,Local,False
18413,GLENARM AVE,40.392795,-80.017417,0.555521,high,Local,False
13188,FITCH WAY,40.392439,-80.017189,0.555521,high,Alley,False
14770,SUNCREST ST,40.411417,-79.996069,0.555521,high,Local,False
19087,PARKLYN ST,40.385009,-80.002552,0.555521,high,Local,False
10721,BODKIN ST,40.396516,-80.024471,0.555521,high,Local,False
11414,LARIAT WAY,40.389363,-80.01794,0.555521,high,Alley,False
6713,BRIAR WAY,40.390427,-80.019105,0.555521,high,Alley,False
16725,FERNLAND ST,40.376896,-80.003109,0.555521,high,Local,False
15002,WOODBOURNE AVE,40.390211,-80.018359,0.555521,high,Local,False
2957,EATHAN AVE,40.39755,-80.017338,0.555521,high,Local,False
12432,OTTILLIA ST,40.411644,-79.981641,0.555521,high,Local,False
16147,BELLEVILLE ST,40.375689,-80.001746,0.555521,high,Local,False
12688,SOUTH WAY,40.399792,-79.98677,0.555521,high,Alley,False
13124,LUCINA AVE,40.387072,-79.992177,0.555521,high,Local,False
13911,WOODBOURNE AVE,40.391194,-80.019716,0.555521,high,Local,False
4187,CONNISTON AVE,40.408554,-79.999397,0.555521,high,Local,False
6123,GLENARM AVE,40.396073,-80.015876,0.555521,high,Local,False
10742,REDROSE WAY,40.400932,-79.984216,0.555521,high,Alley,False
15024,TRANSVERSE AVE,40.400346,-79.983049,0.555521,high,Local,False
11958,CAMFIELD ST,40.407901,-79.998253,0.555521,high,Local,False
10071,REIFERT ST,40.408258,-79.993115,0.555521,high,Local,False
12717,PARDEE WAY,40.399501,-80.023756,0.555521,high,Alley,False
6643,PLAINVIEW AVE,40.398759,-80.023236,0.555521,high,Local,False
13020,KERNEL WAY,40.411367,-79.993591,0.555521,high,Alley,False
17908,BANTAM WAY,40.402994,-80.015205,0.555521,high,Alley,True
3486,CALLE AVE,40.407772,-79.999061,0.555521,high,Local,False
1061,SUNNYLAND AVE,40.382773,-79.987433,0.555521,high,Local,False
9485,BERKSHIRE AVE,40.387015,-80.012359,0.555521,high,Local,False
10820,VIADUCT WAY,40.390916,-80.023258,0.555521,high,Alley,False
8318,LUCINA AVE,40.387967,-79.99236,0.555521,high,Local,False
687,SUNCREST ST,40.41133,-79.995008,0.555521,high,Local,False
15592,ROSSMORE AVE,40.397861,-80.022529,0.555521,high,Local,True
18353,GRIMES AVE,40.412125,-79.99288,0.555521,high,Local,False
10755,TROST AVE,40.403363,-79.992183,0.555521,high,Local,False
19143,WOODWARD AVE,40.398646,-80.024002,0.555521,high,Local,False
1101,CAMFIELD ST,40.409305,-79.998321,0.555521,high,Local,False
3503,ALCOVE WAY,40.402286,-79.984286,0.555521,high,Alley,False
6053,ALVENA WAY,40.397515,-80.023487,0.555521,high,Alley,True
6138,SUNCREST ST,40.411427,-79.995577,0.555521,high,Local,False
12763,CALLE AVE,40.407787,-79.99851,0.555521,high,Local,False
6552,ROSSMORE AVE,40.397143,-80.021548,0.555521,high,Local,False
4197,ELMBANK ST,40.401295,-80.012114,0.555521,high,Local,False
18921,CEDRICTON ST,40.404801,-79.992641,0.555521,high,Local,False
2980,WOODBOURNE AVE,40.388372,-80.015813,0.555521,high,Local,False
7149,METER WAY,40.380786,-79.990673,0.555521,high,Alley,False
7765,PONTOON WAY,40.385869,-80.002886,0.555521,high,Alley,False
5958,FREEDOM AVE,40.387326,-80.013913,0.555521,high,Local,False
10768,WOODBOURNE AVE,40.38785,-80.015093,0.555521,high,Local,False
14382,LOLETTA ST,40.397936,-79.99187,0.555521,high,Local,False
16184,AMANDA ST,40.398408,-79.987435,0.555521,high,Local,False
13176,HUEY WAY,40.391699,-79.979462,0.555521,high,Alley,False
17897,BANDI AVE,40.409389,-79.999143,0.555521,high,Local,False
18563,HADDON WAY,40.405414,-80.018546,0.555521,high,Local,True
2973,WESTMONT AVE,40.399398,-79.990334,0.555521,high,Local,False
4176,BANDI AVE,40.409403,-79.998577,0.555521,high,Local,False
18431,NOME WAY,40.40367,-79.991442,0.555521,high,Alley,False
10783,MCMANUS ST,40.40993,-79.980255,0.555521,high,Local,False
14348,REIFERT ST,40.409222,-79.997467,0.555521,high,Local,False
7841,DABNEY WAY,40.397525,-80.024144,0.555521,high,Alley,False
1758,BELLAIRE PL,40.392942,-80.011567,0.555521,high,Local,False
12113,OTTILLIA ST,40.410865,-79.981595,0.555521,high,Local,False
1078,AARON AVE,40.386618,-80.002756,0.555521,high,Local,False
13194,ACME WAY,40.387453,-80.016956,0.555521,high,Alley,False
13798,REDBIRD WAY,40.383121,-80.000616,0.555521,high,Alley,False
1376,REDBIRD WAY,40.382928,-80.001002,0.555521,high,Alley,False
5967,AMMAN ST,40.396604,-80.028579,0.555521,high,Local,False
5924,AARON AVE,40.386132,-80.003575,0.555521,high,Local,False
11948,DABNEY WAY,40.397867,-80.0237,0.555521,high,Alley,False
15525,DEW WAY,40.387862,-79.980627,0.555521,high,Alley,False
6011,CIVIC WAY,40.388333,-80.016579,0.555521,high,Alley,False
7755,ANGLO WAY,40.403099,-79.985442,0.555521,high,Alley,False
7339,JACOB ST,40.387045,-79.998207,0.555521,high,Local,False
5312,FROG WAY,40.406527,-80.020014,0.555521,high,Alley,False
13741,E CHERRYHILL ST,40.398635,-79.987953,0.555521,high,Alley,False
8928,WESTMONT AVE,40.396403,-79.98881,0.555521,high,Local,False
4043,MARLAND ST,40.411977,-79.991956,0.555521,high,Local,False
6472,BROOK WAY,40.404365,-79.992518,0.555521,high,Alley,False
17885,ASKAL WAY,40.387411,-79.982149,0.555521,high,Alley,False
17271,JACOB ST,40.388044,-79.998734,0.555521,high,Local,False
2832,SPOKANE AVE,40.386919,-79.989693,0.555521,high,Local,False
2111,FARINA WAY,40.410753,-79.978711,0.555521,high,Alley,False
19093,HAREX WAY,40.39139,-80.019196,0.555521,high,Alley,False
7842,SHAWHAN AVE,40.39609,-80.024639,0.555521,high,Local,True
10286,DOWLING ST,40.396636,-79.980654,0.555521,high,Local,False
897,TROST AVE,40.404259,-79.992605,0.555521,high,Local,False
14916,SINTON AVE,40.387541,-79.991851,0.555521,high,Local,False
14342,DAHLIA WAY,40.393555,-80.007648,0.555521,high,Alley,False
13607,TARRAGONNA ST,40.410298,-79.996855,0.555521,high,Local,False
11905,SELDON ST,40.38462,-79.998468,0.555521,high,Local,False
4596,FISHER ST,40.41147,-79.977613,0.555521,high,Local,False
10215,WOODBOURNE AVE,40.390453,-80.018701,0.555521,high,Local,False
18591,NORWICH AVE,40.387023,-80.017037,0.555521,high,Local,False
17847,FITCH WAY,40.392791,-80.007586,0.555521,high,Alley,False
9551,CARESS WAY,40.397951,-80.022004,0.555521,high,Alley,False
10099,PAUL PL,40.403116,-80.016206,0.555521,high,Alley,True
18422,FITCH WAY,40.392661,-80.011083,0.555521,high,Alley,False
10722,FAIRHOPE ST,40.38856,-79.980491,0.555521,high,Alley,False
16793,SOUTH WAY,40.399709,-79.987223,0.555521,high,Alley,False
11420,METZ WAY,40.399348,-80.017557,0.555521,high,Alley,False
3443,TRELONA WAY,40.387137,-80.011919,0.555521,high,Alley,False
2259,ASKAL WAY,40.387315,-79.981257,0.555521,high,Alley,False
1079,AARON AVE,40.386426,-80.003111,0.555521,high,Local,False
13195,CIVIC WAY,40.38708,-80.014832,0.555521,high,Alley,False
4058,TRIANA ST,40.404727,-79.980835,0.555521,high,Local,False
19033,COPPERFIELD AVE,40.395145,-79.9906,0.555521,high,Local,False
4314,SANDERSON AVE,40.382198,-79.986659,0.555521,high,Local,False
13869,ELWYN AVE,40.376895,-80.003724,0.555521,high,Local,False
19016,GROGAN AVE,40.408174,-79.994198,0.555521,high,Local,False
7226,LEOLYN ST,40.399771,-79.98644,0.555521,high,Local,False
14148,OTTILLIA ST,40.412009,-79.981665,0.555521,high,Local,False
13642,BUCK WAY,40.404644,-79.992403,0.555521,high,Alley,False
6550,HARTRANFT ST,40.402184,-80.014552,0.555521,high,Local,False
19017,WILBUR WAY,40.40843,-79.994852,0.555521,high,Alley,False
18320,ALICE ST,40.41017,-79.994561,0.555521,high,Local,False
16078,INVESTOR WAY,40.386424,-80.002167,0.555521,high,Alley,False
5843,GEORGIA AVE,40.410387,-79.994958,0.555521,high,Local,False
1259,BELLAIRE PL,40.393167,-80.007615,0.555521,high,Local,False
3603,PLAINVIEW AVE,40.397371,-80.024761,0.555521,high,Local,False
19136,MASCOT WAY,40.398964,-80.017626,0.555521,high,Alley,False
7832,BODKIN ST,40.396783,-80.025091,0.555521,high,Local,False
11186,ALICE ST,40.410157,-79.995959,0.555521,high,Local,False
17365,PLAINVIEW AVE,40.396038,-80.025948,0.555521,high,Local,True
4718,TROST AVE,40.403604,-79.992306,0.555521,high,Local,False
16714,REIFERT ST,40.409411,-79.996123,0.555521,high,Local,False
7293,SANDERSON AVE,40.382456,-79.986695,0.555521,high,Local,False
17894,GLENARM AVE,40.39322,-80.017217,0.555521,high,Local,False
4858,BEAUFORT AVE,40.3999,-80.017773,0.555521,high,Local,False
13679,TROST AVE,40.403913,-79.992462,0.555521,high,Local,False
10205,FAIR AVE,40.402889,-80.020151,0.555521,high,Local,False
2921,SULTAN WAY,40.400674,-80.01671,0.555521,high,Alley,False
15114,WYSOX ST,40.385714,-79.982077,0.555521,high,Local,False
7730,MULLOOLY ST,40.380558,-79.991379,0.555521,high,Local,False
5411,KERBERT ST,40.385295,-79.990436,0.555521,high,Local,False
2258,SPOKANE AVE,40.387723,-79.989432,0.555521,high,Local,False
17269,MT JOSEPH ST,40.396012,-79.990073,0.555521,high,Local,False
1403,LAUCH WAY,40.387149,-79.982606,0.555521,high,Alley,True
11388,PEOLA RD,40.402864,-80.021502,0.555521,high,Local,False
4779,BEAUFORT AVE,40.399991,-80.018393,0.555521,high,Local,False
16581,HERMAN DR,40.40422,-80.015037,0.555521,high,Alley,False
17876,GROGAN AVE,40.408556,-79.994021,0.555521,high,Local,False
2882,ABINGTON WAY,40.396687,-80.027838,0.555521,high,Alley,False
4908,HORNING ST,40.381977,-79.992838,0.555521,high,Local,False
15532,BODKIN ST,40.396322,-80.024027,0.555521,high,Local,True
15421,SUNCREST ST,40.41097,-79.993842,0.555521,high,Local,False
11844,GEORGIA AVE,40.411116,-79.994597,0.555521,high,Local,False
14329,GLENARM AVE,40.393601,-80.017044,0.555521,high,Local,False
13198,GROGAN AVE,40.408953,-79.993834,0.555521,high,Local,False
7801,CIVIC WAY,40.38754,-80.015477,0.555521,high,Alley,False
2778,UNNAMED35M WAY,40.407056,-80.021023,0.555521,high,Alley,False
7932,ELMBANK ST,40.401838,-80.012077,0.555521,high,Local,False
3578,PLAINVIEW AVE,40.396881,-80.024848,0.555521,high,Local,False
4245,DELLROSE ST,40.399521,-79.989707,0.555521,high,Local,False
17932,RICHFIELD ST,40.382888,-80.000079,0.555521,high,Local,False
10129,WILBUR ST,40.408104,-79.99506,0.555521,high,Local,False
13817,AMMAN ST,40.396873,-80.027826,0.555521,high,Local,False
6039,BODKIN ST,40.396963,-80.025505,0.555521,high,Local,False
1262,PLATEAU ST,40.393704,-79.990117,0.555521,high,Local,False
16195,WOODBOURNE AVE,40.389021,-80.016716,0.555521,high,Local,False
4208,WOODBOURNE AVE,40.38736,-80.014421,0.555521,high,Local,False
17724,DUART WAY,40.410589,-79.99602,0.555521,high,Alley,False
1792,WALNA WAY,40.38822,-79.992873,0.555521,high,Alley,False
8943,MT JOSEPH ST,40.399154,-79.991577,0.555521,high,Local,False
14418,EDGEBROOK AVE,40.392151,-80.015225,0.555521,high,Local,True
5453,METZ WAY,40.397782,-80.01686,0.555521,high,Alley,False
1301,OLLIE ST,40.368943,-79.919116,0.554918,high,Local,False
8320,LANDVIEW RD,40.42163,-79.924506,0.550973,high,Local,False
4052,GREENFIELD AVE,40.424365,-79.935598,0.550973,high,Collector,True
2101,DELEVAN ST,40.422557,-79.932352,0.550973,high,Local,False
2139,GRAPHIC ST,40.42451,-79.935342,0.550973,high,Local,True
7246,FORDHAM AVE,40.392567,-80.024787,0.544349,moderate,Local,False
8808,SHIRAS AVE,40.4039,-80.029392,0.544349,moderate,Local,False
1186,BROWNSVILLE RD,40.397657,-79.988238,0.53741,moderate,Collector,True
10140,BROWNSVILLE RD,40.386553,-79.980283,0.53741,moderate,Collector,True
4336,BROWNSVILLE RD,40.398299,-79.988569,0.53741,moderate,Collector,True
11400,FORDHAM AVE,40.388617,-80.019325,0.53561,moderate,Local,False
2846,COLOGNE ST,40.419888,-79.969029,0.534685,moderate,Local,False
7931,LAUGHLIN AVE,40.404299,-79.986788,0.534313,moderate,Local,False
13137,HIGHNOTE WAY,40.403658,-79.986559,0.534313,moderate,Alley,False
14197,WINGATE ST,40.404914,-79.986287,0.534313,moderate,Local,False
4651,LAUGHLIN AVE,40.404307,-79.986425,0.534313,moderate,Local,False
13667,NORTHERN WAY,40.404077,-79.98574,0.534313,moderate,Alley,False
11232,HIGHNOTE WAY,40.404064,-79.986597,0.534313,moderate,Alley,False
9518,AARON AVE,40.387697,-80.000981,0.534313,moderate,Local,False
13591,BURR ST,40.412007,-79.977983,0.534313,moderate,Local,False
15399,WINGATE ST,40.404511,-79.986775,0.534313,moderate,Local,False
4008,WINGATE ST,40.405489,-79.985625,0.534313,moderate,Local,False
16799,ISHAM WAY,40.389016,-80.022139,0.534313,moderate,Alley,False
1610,RICHFIELD ST,40.382441,-80.00096,0.534313,moderate,Local,False
3627,ISHAM WAY,40.390128,-80.023947,0.534313,moderate,Alley,False
16671,AARON AVE,40.387332,-80.001604,0.534313,moderate,Local,False
2993,QUEENSBORO AVE,40.38821,-80.021203,0.534313,moderate,Local,False
14411,QUEENSBORO AVE,40.388452,-80.020907,0.534313,moderate,Local,False
18604,ELMBANK ST,40.400407,-80.01188,0.534313,moderate,Local,False
19079,W WOODFORD AVE,40.393336,-79.989239,0.534313,moderate,Local,False
7216,MINOR WAY,40.383,-80.0013,0.534313,moderate,Alley,False
16030,SHADY AVE,40.428907,-79.921485,0.533508,moderate,Local,False
4038,SHADY AVE,40.428543,-79.921876,0.533508,moderate,Local,False
2686,SHADY AVE,40.429351,-79.921014,0.533508,moderate,Local,False
16267,SHADY AVE,40.42977,-79.92056,0.533508,moderate,Local,False
12465,FORWARD AVE,40.428825,-79.919868,0.533508,moderate,Local,False
9408,NICHOLSON ST,40.43046,-79.918647,0.533508,moderate,Local,False
2420,S LINDEN AVE,40.444684,-79.917551,0.533508,moderate,Local,True
5874,DENNISTON ST,40.437387,-79.917638,0.533508,moderate,Local,False
3629,WILKINS AVE,40.444449,-79.917128,0.533508,moderate,Collector,True
15634,MOHRBACH ST,40.366719,-79.909501,0.533464,moderate,Local,False
10747,FREDANNA ST,40.366415,-79.907425,0.533464,moderate,Local,False
2296,E ELIZABETH ST,40.407433,-79.93699,0.533464,moderate,Local,False
19106,LEASIDE DR,40.371907,-79.911565,0.533464,moderate,Local,False
9654,ANTARCTIC WAY,40.366741,-79.91713,0.533464,moderate,Alley,False
19198,PLAPORT WAY,40.375072,-79.911471,0.533464,moderate,Local,False
16834,F WAY,40.373149,-79.91267,0.533464,moderate,Alley,False
19269,LEASIDE DR,40.371914,-79.912095,0.533464,moderate,Local,False
7702,PLAPORT WAY,40.377095,-79.910172,0.533464,moderate,Local,False
10773,COOLEY WAY,40.368361,-79.917168,0.533464,moderate,Alley,False
7202,LEASIDE DR,40.372597,-79.913054,0.533464,moderate,Local,False
4800,LEASIDE DR,40.37271,-79.91417,0.533464,moderate,Local,False
17922,FLIGHT WAY,40.368203,-79.916923,0.533464,moderate,Alley,False
13181,MARGARET ST,40.369009,-79.915584,0.533464,moderate,Local,False
7200,FREDANNA ST,40.36504,-79.906753,0.533464,moderate,Local,False
8884,LOUGEAN AVE,40.37692,-79.910994,0.533464,moderate,Local,False
2381,MARGRAY ST,40.367046,-79.914775,0.533464,moderate,Local,False
12722,NAUGLE ST,40.364935,-79.907788,0.533464,moderate,Local,False
13280,MARGRAY ST,40.367032,-79.914059,0.533464,moderate,Local,False
11981,Y WAY,40.36509,-79.905955,0.533464,moderate,Alley,False
5995,MCELHINNY AVE,40.365962,-79.907527,0.533464,moderate,Local,False
12615,BRANCH WAY,40.366204,-79.908744,0.533464,moderate,Alley,False
2382,MOHRBACH ST,40.366876,-79.908945,0.533464,moderate,Local,False
7787,NAUGLE ST,40.365142,-79.907123,0.533464,moderate,Local,False
18478,BRANCH WAY,40.3653,-79.907905,0.533464,moderate,Alley,False
2923,COOLEY WAY,40.368346,-79.918392,0.533464,moderate,Alley,False
7868,MCELHINNY AVE,40.365655,-79.908598,0.533464,moderate,Local,True
1292,E CIRCLE AVE,40.387828,-79.927008,0.533464,moderate,Local,False
19107,DELEHANTY ST,40.371764,-79.913192,0.533464,moderate,Local,False
9553,MCELHINNY AVE,40.366209,-79.906676,0.533464,moderate,Local,False
16730,KINLEY WAY,40.37732,-79.911537,0.533464,moderate,Alley,False
17396,MIFFLIN RD,40.364957,-79.908257,0.533464,moderate,Local,False
16817,R WAY,40.37766,-79.909386,0.533464,moderate,Alley,False
1623,K WAY,40.370007,-79.910599,0.533464,moderate,Local,False
19197,DILLER PL,40.375354,-79.915061,0.533464,moderate,Alley,False
10148,N CIRCLE AVE,40.388625,-79.928221,0.533464,moderate,Local,False
7212,FREDANNA ST,40.368997,-79.908504,0.533464,moderate,Local,False
17323,OAKLEAF DR,40.371554,-79.913717,0.533464,moderate,Local,False
10182,RODGERS ST,40.367926,-79.915535,0.533464,moderate,Local,False
9568,LEASIDE DR,40.370792,-79.910633,0.533464,moderate,Local,False
8453,MOHRBACH ST,40.367071,-79.908253,0.533464,moderate,Local,False
13204,COOLEY WAY,40.368354,-79.917733,0.533464,moderate,Alley,False
14354,COOLEY WAY,40.364963,-79.910176,0.533464,moderate,Alley,False
2924,COX AVE,40.368527,-79.917472,0.533464,moderate,Local,False
9082,COSMOS ST,40.366973,-79.907059,0.533464,moderate,Local,False
2911,HALCHESS ST,40.366176,-79.908074,0.533464,moderate,Local,False
5412,MCELHINNY AVE,40.365797,-79.908063,0.533464,moderate,Local,False
12724,LOUGEAN AVE,40.374457,-79.915975,0.533464,moderate,Local,False
1588,INTERBORO AVE,40.367334,-79.914012,0.533464,moderate,Local,False
17331,COOLEY WAY,40.368326,-79.915598,0.533464,moderate,Alley,False
18490,F WAY,40.372637,-79.912767,0.533464,moderate,Alley,False
17923,V WAY,40.368837,-79.908988,0.533464,moderate,Local,False
7889,C WAY,40.373481,-79.915015,0.533464,moderate,Alley,False
4361,FREDANNA ST,40.365659,-79.907053,0.533464,moderate,Local,False
16731,INTERBORO AVE,40.367621,-79.914226,0.533464,moderate,Local,False
13787,COX AVE,40.368139,-79.917461,0.533464,moderate,Local,False
16123,HERETICK WAY,40.36905,-79.92012,0.533464,moderate,Alley,False
16818,ARCTIC WAY,40.367438,-79.915523,0.533464,moderate,Alley,False
2994,FLIGHT WAY,40.367381,-79.916898,0.533464,moderate,Alley,False
3510,DELLAGLEN AVE,40.366246,-79.919504,0.529113,moderate,Local,False
6088,KINLEY AVE,40.375823,-79.913225,0.529113,moderate,Local,False
12578,TOKAY ST,40.454436,-79.880369,0.528772,moderate,Local,False
17321,KEEFE ST,40.36516,-79.909732,0.528699,moderate,Local,False
10847,MOHRBACH ST,40.36668,-79.90997,0.528699,moderate,Local,False
5953,BROWNSVILLE RD,40.384284,-79.977748,0.528573,moderate,Collector,True
1584,BROWNSVILLE RD,40.384022,-79.97757,0.528573,moderate,Collector,True
2992,BROOKLINE BLVD,40.395741,-80.026827,0.528573,moderate,Collector,True
15545,BROWNSVILLE RD,40.390006,-79.98581,0.528573,moderate,Collector,True
9624,BROOKLINE BLVD,40.395717,-80.025743,0.528573,moderate,Collector,True
3523,BROWNSVILLE RD,40.3922,-79.986584,0.528573,moderate,Collector,True
11760,CATON ST,40.423772,-79.920891,0.525543,moderate,Local,False
18503,FRANK ST,40.421475,-79.933659,0.525543,moderate,Local,False
4752,LUDWICK ST,40.421825,-79.92505,0.525543,moderate,Local,False
10598,LUDWICK ST,40.422315,-79.925032,0.525543,moderate,Local,False
7663,GREENFIELD AVE,40.424312,-79.935921,0.525543,moderate,Collector,True
1271,VENTNER WAY,40.421183,-79.924715,0.525543,moderate,Alley,False
955,MCCASLIN ST,40.424103,-79.936335,0.525543,moderate,Local,True
18844,MCCASLIN ST,40.423831,-79.93636,0.525543,moderate,Local,False
5340,CRYSTAL WAY,40.422091,-79.924505,0.525543,moderate,Alley,False
9716,MARIA WAY,40.424261,-79.922989,0.525543,moderate,Alley,False
3315,CATON ST,40.423759,-79.920405,0.525543,moderate,Local,True
13169,LUDWICK ST,40.421365,-79.925034,0.525543,moderate,Local,False
15367,GRAPHIC ST,40.424866,-79.9355,0.525543,moderate,Local,False
8377,LORETTA ST,40.421147,-79.933729,0.525543,moderate,Local,False
2368,HOPE ST,40.449857,-79.997041,0.525352,moderate,Alley,False
13149,ABEL ST,40.41648,-79.977015,0.518914,moderate,Local,False
18292,CHARCOT ST,40.416887,-79.971988,0.518914,moderate,Alley,False
5934,ELEANOR ST,40.416765,-79.973025,0.518914,moderate,Local,False
13018,ELSIE ST,40.416748,-79.975403,0.518914,moderate,Local,False
1010,JONQUIL ST,40.416141,-79.978929,0.518914,moderate,Local,False
5316,ELSIE ST,40.416475,-79.972207,0.518914,moderate,Local,False
1187,CALLE AVE,40.407729,-80.001041,0.518813,moderate,Local,False
15100,I-376 RAMP,40.424279,-80.030974,0.518037,moderate,Principal Arterial,True
9713,BANKSVILLE RD RAMP,40.425023,-80.031071,0.518037,moderate,Principal Arterial,True
18631,I-376,40.424889,-80.03079,0.518037,moderate,Principal Arterial,True
5566,BANKSVILLE RD,40.424783,-80.029767,0.518037,moderate,Principal Arterial,True
11977,BANKSVILLE RD RAMP,40.425306,-80.031323,0.518037,moderate,Principal Arterial,True
16151,BANKSVILLE RD RAMP,40.422461,-80.029652,0.518037,moderate,Principal Arterial,True
8416,I-376 RAMP,40.425733,-79.894176,0.518037,moderate,Principal Arterial,True
6754,I-376,40.424215,-80.0309,0.518037,moderate,Principal Arterial,True
14362,I-376 RAMP,40.425403,-80.02994,0.518037,moderate,Principal Arterial,True
2440,I-376,40.425695,-79.906595,0.518037,moderate,Principal Arterial,True
6619,BOGGS AVE,40.41681,-80.012862,0.516915,moderate,Collector,True
2394,LOUGEAN AVE,40.374063,-79.913177,0.516041,moderate,Local,False
15473,BROWNSVILLE RD,40.385221,-79.978389,0.513076,moderate,Collector,True
11648,CLAYTON AVE,40.462335,-80.010655,0.512089,moderate,Local,False
6856,LANGLEY ST,40.462807,-80.011874,0.512089,moderate,Local,False
18174,UNIVERSITY AVE,40.461599,-80.011191,0.512089,moderate,Local,False
17385,BROOKLINE BLVD,40.396053,-80.024186,0.511762,moderate,Collector,True
5335,BROWNSVILLE RD,40.386873,-79.98159,0.511762,moderate,Collector,True
9035,BROWNSVILLE RD,40.396978,-79.98784,0.511762,moderate,Collector,True
11947,BROWNSVILLE RD,40.398819,-79.98882,0.511762,moderate,Collector,True
11968,GROVELAND ST,40.386124,-80.002479,0.511762,moderate,Local,False
7268,BROOKLINE BLVD,40.391793,-80.016215,0.511762,moderate,Collector,True
8433,BROOKLINE BLVD,40.391855,-80.015545,0.511762,moderate,Collector,True
17984,BROOKLINE BLVD,40.395131,-80.021946,0.511762,moderate,Collector,True
12655,BROWNSVILLE RD,40.386891,-79.982252,0.511762,moderate,Collector,True
4260,BROOKLINE BLVD,40.396248,-80.027151,0.511762,moderate,Collector,True
1811,EVERGREEN RD,40.493919,-80.010675,0.510501,moderate,Minor Arterial,True
15561,E ELIZABETH ST,40.407847,-79.937923,0.508368,moderate,Local,False
6657,STOCK ST,40.366125,-79.915932,0.507308,moderate,Local,False
13278,MOTION WAY,40.367198,-79.920753,0.507308,moderate,Alley,False
1275,STOCK ST,40.365841,-79.919476,0.507308,moderate,Local,False
15664,STOCK ST,40.365829,-79.920259,0.507308,moderate,Alley,False
7878,STOCK ST,40.366304,-79.917892,0.507308,moderate,Local,False
7812,SESSION ST,40.367578,-79.921161,0.507308,moderate,Local,False
11444,DILLER AVE,40.375512,-79.914401,0.507308,moderate,Local,False
17904,STOCK ST,40.365905,-79.919006,0.507308,moderate,Local,False
15716,DELLAGLEN AVE,40.367667,-79.919823,0.507308,moderate,Local,False
17406,BALTIMORE ST,40.366678,-79.920702,0.507308,moderate,Local,False
2384,OLLIE ST,40.36608,-79.918057,0.507308,moderate,Local,False
7851,ANTARCTIC WAY,40.366372,-79.915348,0.507308,moderate,Alley,False
14424,MCELHINNY AVE,40.365431,-79.919205,0.507308,moderate,Local,False
11349,U WAY,40.369344,-79.908088,0.507308,moderate,Local,False
6658,COMMISSION WAY,40.365831,-79.916561,0.507308,moderate,Alley,False
11971,OLLIE ST,40.368538,-79.919004,0.507308,moderate,Local,False
6102,COMMISSION WAY,40.365909,-79.918264,0.507308,moderate,Alley,False
9651,MCELHINNY AVE,40.365489,-79.916542,0.507308,moderate,Local,False
8454,COX AVE,40.366503,-79.917424,0.507308,moderate,Local,False
6149,CLOVER ST,40.419466,-79.970994,0.506299,moderate,Local,False
15449,ECCLES ST,40.418129,-79.973103,0.506299,moderate,Local,False
19043,CLOVER ST,40.418509,-79.971168,0.506299,moderate,Alley,False
19113,ARLINGTON AVE,40.419808,-79.990108,0.506299,moderate,Collector,True
6588,FREDANNA ST,40.364672,-79.906576,0.506109,moderate,Local,False
4563,KAERCHER ST,40.423271,-79.947102,0.502413,moderate,Local,False
15440,WALTER ST,40.421538,-79.994776,0.502413,moderate,Local,False
9546,GLEN LYTLE RD,40.421156,-79.938482,0.502413,moderate,Local,False
1198,WINTERBURN AVE,40.421984,-79.939826,0.502413,moderate,Collector,True
1197,SHIELDS ST,40.422005,-79.940517,0.502413,moderate,Local,False
4015,EUGENIE WAY,40.421025,-79.995278,0.502413,moderate,Alley,False
2734,GRIT WAY,40.422544,-79.945814,0.502413,moderate,Alley,False
11177,WINTERBURN AVE,40.425057,-79.939799,0.502413,moderate,Collector,True
12638,ALMA ST,40.421332,-79.94432,0.502413,moderate,Local,False
9343,WINTERBURN AVE,40.423411,-79.939815,0.502413,moderate,Collector,True
17143,SHARON ST,40.42176,-79.986052,0.502413,moderate,Local,False
6409,EUREKA ST,40.423749,-79.999673,0.502413,moderate,Local,False
8806,COLEMAN ST,40.424897,-79.941314,0.502413,moderate,Local,False
8192,KEIBS WAY,40.421627,-79.971909,0.502413,moderate,Alley,False
16126,GRIT WAY,40.421875,-79.945521,0.502413,moderate,Alley,False
772,HOOSAC ST,40.424916,-79.94046,0.502413,moderate,Local,False
4051,LYDIA ST,40.424828,-79.94218,0.502413,moderate,Local,False
809,RANDALL ST,40.422472,-79.945395,0.502413,moderate,Alley,False
15309,FARNSWORTH ST,40.423287,-79.942035,0.502413,moderate,Local,False
1022,ELEANOR ST,40.421695,-79.972608,0.502413,moderate,Local,False
8222,WINTERBURN AVE,40.424559,-79.939804,0.502413,moderate,Collector,True
11170,AUGUSTINE ST,40.422576,-79.946888,0.502413,moderate,Alley,False
18937,WINTON ST,40.423097,-79.999622,0.502413,moderate,Local,False
4341,HOLT ST,40.422174,-79.973045,0.502413,moderate,Local,False
16050,ANGELO ST,40.421377,-79.986272,0.502413,moderate,Alley,False
5909,ST THOMAS ST,40.421559,-79.985349,0.502413,moderate,Alley,False
11163,FARNSWORTH ST,40.42329,-79.940145,0.502413,moderate,Local,True
17345,ESTELLA AVE,40.424072,-80.000987,0.502413,moderate,Local,False
5320,ANGELO ST,40.421387,-79.985602,0.502413,moderate,Alley,False
16864,TAN WAY,40.425514,-79.941068,0.502413,moderate,Alley,True
15438,GLEN LYTLE RD,40.423097,-79.937303,0.502413,moderate,Local,False
15430,HOOSAC ST,40.425381,-79.940655,0.502413,moderate,Local,False
8301,IBEX WAY,40.4225,-79.94315,0.502413,moderate,Alley,False
14242,ELEANOR ST,40.421969,-79.972662,0.502413,moderate,Local,False
18982,BIGELOW ST,40.42436,-79.949047,0.502413,moderate,Local,False
6414,BRISTOL ST,40.423159,-79.946733,0.502413,moderate,Local,False
17706,FARNSWORTH ST,40.423296,-79.942525,0.502413,moderate,Local,False
14869,UNNAMED55A3 WAY,40.422241,-79.947227,0.502413,moderate,Private,False
16651,ALMA ST,40.421511,-79.942674,0.502413,moderate,Local,False
4069,MUSGRAVE ST,40.424103,-79.94626,0.502413,moderate,Local,False
12622,ALMA ST,40.421402,-79.943734,0.502413,moderate,Local,False
13074,RUPPLE WAY,40.424363,-79.941527,0.502413,moderate,Alley,False
893,LYDIA ST,40.423051,-79.941784,0.502413,moderate,Local,False
14204,SHIELDS ST,40.423042,-79.940492,0.502413,moderate,Local,False
12394,YODER ST,40.423549,-79.947584,0.502413,moderate,Local,False
2318,BLANTON ST,40.424387,-79.939498,0.502413,moderate,Local,True
6499,MANTON WAY,40.421291,-79.994994,0.502413,moderate,Local,False
14188,BROSVILLE ST,40.42383,-79.986573,0.502413,moderate,Collector,True
17462,E WARRINGTON AVE,40.421806,-79.993471,0.502413,moderate,Collector,True
752,HOLT ST,40.422136,-79.971564,0.502413,moderate,Local,False
8778,QUIRIN LN,40.422659,-79.944896,0.502413,moderate,Alley,False
13026,HOOSAC ST,40.425722,-79.9408,0.502413,moderate,Local,True
2710,HACKSTOWN ST,40.424136,-79.985411,0.502413,moderate,Local,False
8238,E WARRINGTON AVE,40.421804,-79.994252,0.502413,moderate,Collector,True
12013,ESTELLA AVE,40.423419,-80.000902,0.502413,moderate,Local,False
16509,LYDIA ST,40.423651,-79.941897,0.502413,moderate,Local,False
9992,ELEANOR ST,40.421453,-79.972552,0.502413,moderate,Local,False
1199,FORBUSH WAY,40.421161,-79.94019,0.502413,moderate,Alley,True
16863,GREENFIELD AVE,40.42564,-79.941992,0.502413,moderate,Collector,True
6453,EXPOSITION WAY,40.424818,-79.939254,0.502413,moderate,Alley,False
18963,EXPOSITION WAY,40.423949,-79.939264,0.502413,moderate,Alley,True
5292,COLEMAN ST,40.425533,-79.941581,0.502413,moderate,Local,True
18269,MOOSE WAY,40.423387,-79.942333,0.502413,moderate,Alley,False
18383,MINNESOTA ST,40.425338,-79.939453,0.502413,moderate,Local,True
5276,SUN WAY,40.422847,-79.941058,0.502413,moderate,Alley,False
4649,WINTERBURN AVE,40.423046,-79.939819,0.502413,moderate,Collector,True
4552,KAERCHER ST,40.42358,-79.946067,0.502413,moderate,Local,False
16037,DENMARSH ST,40.425384,-79.940137,0.502413,moderate,Local,True
4561,27TH ST,40.423845,-80.001592,0.502413,moderate,Local,False
214,COLUMBO ST,40.468577,-79.92974,0.499638,moderate,Local,False
5833,JOSEPHINE ST,40.42413,-79.970157,0.499385,moderate,Collector,True
1272,OLIVIA ST,40.421527,-79.905833,0.498275,moderate,Local,False
1094,WINDERMERE DR,40.422881,-79.902143,0.498275,moderate,Local,False
18776,SHADY COURT DR,40.450222,-79.920102,0.497496,moderate,Private,False
10805,SHADY AVE,40.450027,-79.920668,0.497496,moderate,Collector,True
18104,MOSSFIELD ST,40.470832,-79.933066,0.497009,moderate,Collector,True
13878,STEWART AVE,40.382393,-79.980029,0.494133,moderate,Local,False
1613,STEWART AVE,40.382346,-79.981602,0.494133,moderate,Local,False
13250,QUEENSBORO AVE,40.389435,-80.019709,0.494133,moderate,Local,False
1477,OAKRIDGE ST,40.391352,-80.011801,0.494133,moderate,Local,False
11453,S WAY,40.37427,-79.912693,0.494099,moderate,Alley,False
16718,OAKLEAF DR,40.373022,-79.915259,0.494099,moderate,Local,False
17325,LEASIDE DR,40.370204,-79.912573,0.494099,moderate,Local,False
13297,S WAY,40.374069,-79.912223,0.494099,moderate,Alley,False
5427,OAKLEAF DR,40.371078,-79.9133,0.494099,moderate,Local,False
6590,LEASIDE DR,40.370195,-79.912039,0.494099,moderate,Local,False
1628,SCORER ST,40.373412,-79.912752,0.494099,moderate,Local,False
16833,T WAY,40.373792,-79.912765,0.494099,moderate,Alley,False
8357,H WAY,40.371011,-79.912055,0.494099,moderate,Alley,False
9670,SCORER ST,40.373677,-79.913137,0.494099,moderate,Local,False
9653,DILLER AVE,40.374558,-79.912242,0.494099,moderate,Local,False
16042,CLOVER ST,40.416538,-79.971501,0.493025,moderate,Local,False
7160,SPRING ST,40.416686,-79.977106,0.493025,moderate,Local,False
8972,ALTAMONT WAY,40.413962,-79.998925,0.493025,moderate,Alley,False
2204,DEVLIN ST,40.41492,-79.966007,0.493025,moderate,Local,False
16530,CHARCOT ST,40.416733,-79.971254,0.493025,moderate,Alley,False
2087,ARABELLA ST,40.412224,-79.996443,0.493025,moderate,Local,False
2081,ARABELLA ST,40.412726,-79.994205,0.493025,moderate,Local,False
898,JONQUIL WAY,40.416036,-79.976838,0.493025,moderate,Alley,False
899,SPRING ST,40.416027,-79.972139,0.493025,moderate,Local,False
13131,ELIAS WAY,40.415155,-79.967205,0.493025,moderate,Alley,False
6547,SPRING ST,40.416424,-79.976431,0.493025,moderate,Local,False
8298,FERNLEAF ST,40.415745,-79.976255,0.493025,moderate,Local,False
2218,JONQUIL WAY,40.415653,-79.972511,0.493025,moderate,Alley,False
11352,ARCADIA WAY,40.414084,-79.999811,0.493025,moderate,Alley,False
18941,JONQUIL WAY,40.415886,-79.975047,0.493025,moderate,Alley,False
19028,ELSIE ST,40.416647,-79.973914,0.493025,moderate,Local,False
15356,SPRING ST,40.415561,-79.966179,0.493025,moderate,Local,False
2767,JONQUIL WAY,40.415937,-79.975808,0.493025,moderate,Alley,False
7070,FERNLEAF ST,40.416204,-79.976175,0.493025,moderate,Local,False
6716,DEVLIN ST,40.414837,-79.967378,0.493025,moderate,Local,False
8334,ASHDALE ST,40.414953,-79.99953,0.493025,moderate,Alley,False
14870,ARCADIA WAY,40.415077,-79.999832,0.493025,moderate,Alley,False
12775,BRENT ST,40.415632,-79.977059,0.493025,moderate,Local,False
17717,STERLING ST,40.41698,-79.974561,0.493025,moderate,Local,False
7797,SUR WAY,40.415216,-79.977044,0.493025,moderate,Alley,False
7071,CLOVER ST,40.416162,-79.971566,0.493025,moderate,Local,False
11347,BERND ST,40.41411,-79.998142,0.493025,moderate,Local,False
4727,SPRING ST,40.415734,-79.96936,0.493025,moderate,Local,False
18385,WEBER WAY,40.416632,-79.979538,0.493025,moderate,Alley,False
13208,LORNA WAY,40.413409,-79.996515,0.493025,moderate,Alley,False
10118,OTTILLIA ST,40.412388,-79.98169,0.493025,moderate,Local,False
9734,JONQUIL WAY,40.415308,-79.969185,0.493025,moderate,Alley,False
8829,SPRING ST,40.415934,-79.971303,0.493025,moderate,Local,False
18427,SPRING ST,40.415762,-79.969625,0.493025,moderate,Local,False
778,FLACK ST,40.415625,-79.970583,0.493025,moderate,Local,False
16678,DIPPEL WAY,40.414141,-79.968043,0.493025,moderate,Alley,False
15355,JONQUIL WAY,40.415592,-79.971916,0.493025,moderate,Alley,False
9411,SPRING ST,40.416104,-79.972864,0.493025,moderate,Local,False
11295,SPRING ST,40.415884,-79.970778,0.493025,moderate,Local,False
6458,ELSIE ST,40.416258,-79.970662,0.493025,moderate,Local,False
1471,W CHERRYHILL ST,40.398071,-79.988825,0.492809,moderate,Local,True
12024,BAY RIDGE AVE,40.390484,-80.020334,0.492809,moderate,Local,False
18512,CAPITAL AVE,40.404436,-80.018567,0.492809,moderate,Local,False
1478,HAZELDELL ST,40.392027,-79.98512,0.492809,moderate,Local,False
7774,BIRTLEY AVE,40.398816,-80.018653,0.492809,moderate,Local,False
19173,WEST LIBERTY AVE,40.400909,-80.023033,0.492809,moderate,Principal Arterial,True
10826,GALLION AVE,40.397564,-80.020684,0.492809,moderate,Local,False
17441,DARTMORE ST,40.388873,-79.996234,0.492809,moderate,Local,False
15582,W CHERRYHILL ST,40.397669,-79.991816,0.492809,moderate,Local,False
12148,WEST LIBERTY AVE,40.402213,-80.021574,0.492809,moderate,Principal Arterial,True
4848,NORABELL AVE,40.387936,-80.015662,0.492809,moderate,Local,False
10753,WOODWARD AVE,40.402175,-80.019697,0.492809,moderate,Local,False
6067,W CHERRYHILL ST,40.397981,-79.989478,0.492809,moderate,Local,False
1052,TARRAGONNA ST,40.408275,-79.996753,0.492809,moderate,Local,False
11406,CONCORDIA ST,40.396714,-79.986531,0.492809,moderate,Local,False
8979,E WOODFORD AVE,40.392991,-79.982902,0.492809,moderate,Local,False
4120,KOHEN ST,40.386131,-80.001573,0.492809,moderate,Local,False
4171,THIELMAN AVE,40.398789,-79.991226,0.492809,moderate,Local,False
9112,ALICE ST,40.41004,-79.993844,0.492809,moderate,Local,False
11773,MOORE AVE,40.411871,-79.994587,0.492809,moderate,Local,False
2853,ODETTE ST,40.381165,-79.992407,0.492809,moderate,Local,False
16102,OVERBROOK BLVD,40.385621,-79.991992,0.492809,moderate,Local,False
7162,STARKAMP ST,40.395495,-80.015067,0.492809,moderate,Local,False
9534,CLIFTON ST,40.388098,-79.981277,0.492809,moderate,Local,False
6561,OLIVET AVE,40.385476,-79.991451,0.492809,moderate,Local,False
10226,PIONEER AVE,40.404862,-80.01519,0.492809,moderate,Collector,True
6636,SUSSEX AVE,40.389024,-80.017386,0.492809,moderate,Local,False
8974,HAZELDELL ST,40.391597,-79.985353,0.492809,moderate,Local,False
17873,WEDGEMERE ST,40.396955,-80.020628,0.492809,moderate,Local,False
18485,NUZUM AVE,40.39183,-79.982278,0.492809,moderate,Local,False
1337,ELWYN AVE,40.376317,-80.003064,0.492809,moderate,Local,False
9731,ELWYN AVE,40.375717,-80.002378,0.492809,moderate,Local,False
11413,QUEENSBORO AVE,40.390028,-80.018967,0.492809,moderate,Local,False
11404,BERWIN AVE,40.397878,-80.019338,0.492809,moderate,Local,False
11328,OAKHURST ST,40.399293,-79.990971,0.492809,moderate,Local,False
15700,WEDGEMERE ST,40.396399,-80.021316,0.492809,moderate,Local,False
13175,E WOODFORD AVE,40.393197,-79.984574,0.492809,moderate,Local,False
18520,SUSSEX AVE,40.388818,-80.017373,0.492809,moderate,Local,False
13923,THIELMAN AVE,40.3989,-79.990598,0.492809,moderate,Local,False
12679,PIONEER AVE,40.403725,-80.015457,0.492809,moderate,Collector,True
13906,W CHERRYHILL ST,40.397717,-79.991482,0.492809,moderate,Local,False
5418,TARRAGONNA ST,40.409671,-79.996805,0.492809,moderate,Local,False
16691,QUEENSTON ST,40.389511,-79.992222,0.492809,moderate,Local,False
18600,FLATBUSH AVE,40.39597,-80.017195,0.492809,moderate,Local,False
11954,EDGAR ST,40.385714,-79.981114,0.492809,moderate,Local,False
6557,UNNAMED60KL WAY,40.397346,-79.991502,0.492809,moderate,Private,False
3524,SEATON ST,40.388934,-80.009162,0.492809,moderate,Local,False
14959,BELLAIRE AVE,40.392671,-80.016118,0.492809,moderate,Local,False
7234,CONCORDIA ST,40.39784,-79.98667,0.492809,moderate,Local,False
16079,EDGAR ST,40.384613,-79.980428,0.492809,moderate,Local,True
4765,CONCORDIA ST,40.39717,-79.986557,0.492809,moderate,Local,False
14343,OVERBROOK BLVD,40.386201,-79.991195,0.492809,moderate,Local,False
16119,EDGAR ST,40.385093,-79.980454,0.492809,moderate,Local,False
11906,MAYTIDE ST,40.384415,-79.97956,0.492809,moderate,Collector,True
9117,WOLFORD ST,40.398286,-80.017629,0.492809,moderate,Local,False
2907,WYCHELM ST,40.385016,-80.002071,0.492809,moderate,Local,False
17282,KOHEN ST,40.385583,-80.002277,0.492809,moderate,Local,False
9044,PIONEER AVE,40.398861,-80.021659,0.492809,moderate,Collector,True
4853,THIELMAN AVE,40.399007,-79.989951,0.492809,moderate,Local,False
9503,MULLOOLY ST,40.381374,-79.991309,0.492809,moderate,Local,False
2393,H WAY,40.370009,-79.912311,0.489245,moderate,Alley,False
3287,ALLEQUIPPA ST,40.447503,-79.959683,0.484497,moderate,Local,False
9412,DUNSEITH ST,40.441902,-79.965014,0.484497,moderate,Local,False
14819,TERRACE ST,40.44044,-79.964856,0.484497,moderate,Local,False
18479,WESTMONT AVE,40.389773,-79.987226,0.483785,moderate,Local,False
19130,DORCHESTER AVE,40.393955,-80.027239,0.483785,moderate,Local,False
5999,HOPELAND ST,40.391585,-79.97884,0.483785,moderate,Local,False
11987,KIRK AVE,40.391561,-79.977223,0.483785,moderate,Local,False
14394,SPENCER AVE,40.39086,-79.976379,0.483785,moderate,Local,False
3699,ALMORA ST,40.389923,-79.97659,0.483785,moderate,Local,False
10762,KNOWLSON AVE,40.392656,-80.027291,0.483785,moderate,Local,False
2920,BENSONIA AVE,40.401449,-80.02991,0.483785,moderate,Local,False
12051,HAZELDELL ST,40.390906,-79.98602,0.483785,moderate,Local,True
10612,FALLOWFIELD AVE,40.407053,-80.023559,0.483785,moderate,Local,False
17263,NEELD AVE,40.402652,-80.030478,0.483785,moderate,Local,True
7161,SHAWHAN AVE,40.395172,-80.026329,0.483785,moderate,Local,False
2345,ALMORA ST,40.390337,-79.975965,0.483785,moderate,Local,False
9549,MIDLAND ST,40.392266,-80.026332,0.483785,moderate,Local,False
2836,ALICE ST,40.409808,-79.992515,0.483785,moderate,Local,False
13189,CLEMESHA AVE,40.393068,-80.02656,0.483785,moderate,Local,False
3608,SPENCER AVE,40.389679,-79.976249,0.483785,moderate,Local,False
13220,FLATBUSH AVE,40.393885,-80.019775,0.483785,moderate,Local,False
18446,PIONEER AVE,40.394325,-80.027833,0.483785,moderate,Collector,True
4664,BELASCO AVE,40.406454,-80.026416,0.483785,moderate,Local,False
9619,PIONEER AVE,40.395798,-80.023908,0.483785,moderate,Collector,True
3477,PIONEER AVE,40.394228,-80.026763,0.483785,moderate,Collector,True
1048,FALLOWFIELD AVE,40.408062,-80.023592,0.483785,moderate,Local,False
6584,SANTRON AVE,40.389721,-79.989989,0.483785,moderate,Local,False
4251,SPENCER AVE,40.390115,-79.976272,0.483785,moderate,Local,False
14399,STEBBINS AVE,40.391371,-80.021207,0.483785,moderate,Local,False
1131,NEELD AVE,40.40267,-80.029514,0.483785,moderate,Local,False
15477,BENSONIA AVE,40.403252,-80.029983,0.483785,moderate,Local,False
9539,DORCHESTER AVE,40.393333,-80.027838,0.483785,moderate,Local,False
3409,BELASCO AVE,40.4068,-80.026708,0.483785,moderate,Local,False
4236,CASTLEGATE AVE,40.392252,-80.024765,0.483785,moderate,Local,False
1297,SPENCER AVE,40.391636,-79.976377,0.483785,moderate,Local,False
10760,SPOKANE AVE,40.390543,-79.990512,0.483785,moderate,Local,False
5357,MAYTIDE ST,40.384465,-79.978145,0.483785,moderate,Collector,True
9594,HARGROVE ST,40.413556,-80.010697,0.482364,moderate,Local,True
14842,YODER ST,40.424846,-79.947728,0.480601,moderate,Local,False
6823,DAMAS ST,40.465513,-79.989668,0.479658,moderate,Local,False
16397,EDMOND ST,40.4614,-79.948013,0.479658,moderate,Local,True
12565,LIBERTY AVE,40.460843,-79.947514,0.479658,moderate,Collector,True
5062,SUFFOLK ST,40.46734,-80.00551,0.479658,moderate,Local,False
18729,NOSTER ST,40.465089,-79.990105,0.479658,moderate,Local,False
8915,LIBERTY AVE,40.46123,-79.948246,0.479658,moderate,Collector,True
1891,DAMAS ST,40.465415,-79.990092,0.479658,moderate,Local,False
14573,ROCKLEDGE ST,40.465887,-79.989616,0.479658,moderate,Local,False
16409,GARDNER ST,40.461414,-79.985147,0.479658,moderate,Local,False
12896,LOWRIE ST,40.461643,-79.984605,0.479658,moderate,Local,False
15794,DAMAS ST,40.465512,-79.990797,0.479658,moderate,Local,False
2580,EDMOND ST,40.460996,-79.948161,0.479658,moderate,Local,True
2373,MIDLAND ST,40.391702,-80.02759,0.478916,moderate,Local,False
14438,MCELHINNY AVE,40.365502,-79.915195,0.478775,moderate,Local,False
10303,WASHINGTON BLVD,40.470918,-79.908601,0.478255,moderate,Minor Arterial,True
10911,WASHINGTON BLVD,40.470273,-79.908668,0.478255,moderate,Minor Arterial,True
16553,IBERIA ST,40.424423,-79.99991,0.476363,moderate,Local,False
11169,GLADSTONE ST,40.423143,-79.945447,0.476363,moderate,Local,False
2764,CERES WAY,40.423291,-79.99271,0.476363,moderate,Local,False
17094,ST MARTIN ST,40.422594,-79.985177,0.476363,moderate,Local,False
8271,EXCELSIOR ST,40.422815,-79.992643,0.476363,moderate,Local,False
12431,UNNAMED55A3 WAY,40.422892,-79.947632,0.476363,moderate,Private,False
748,ANGELO ST,40.421335,-79.986833,0.476363,moderate,Alley,False
17798,TAN WAY,40.425613,-79.939055,0.476363,moderate,Alley,False
13160,BRISTOL ST,40.421899,-79.946181,0.476363,moderate,Local,False
11783,PRIMROSE ST,40.421307,-79.973883,0.476363,moderate,Local,False
16010,HARTFORD ST,40.424916,-79.988999,0.476363,moderate,Local,False
7114,BELTZHOOVER AVE,40.422198,-79.997414,0.476363,moderate,Collector,True
9433,CRAIGHEAD ST,40.422035,-79.998471,0.476363,moderate,Local,False
14973,GLADSTONE ST,40.421907,-79.944902,0.476363,moderate,Local,False
6996,ST THOMAS ST,40.422738,-79.985469,0.476363,moderate,Local,False
18987,E WARRINGTON AVE,40.422157,-79.985999,0.476363,moderate,Local,False
17736,MILLBRIDGE ST,40.423955,-79.995865,0.476363,moderate,Local,False
6435,CICERO WAY,40.421537,-79.999027,0.476363,moderate,Alley,True
7876,EUREKA ST,40.423916,-80.003163,0.476363,moderate,Local,False
2814,KAERCHER ST,40.423023,-79.947969,0.476363,moderate,Local,False
18938,ALLEN ST,40.42206,-79.993746,0.476363,moderate,Local,True
12012,EUREKA ST,40.423724,-79.996032,0.476363,moderate,Local,False
15040,ST MARTIN ST,40.422622,-79.984686,0.476363,moderate,Local,False
17772,E WARRINGTON AVE,40.421811,-79.992769,0.476363,moderate,Collector,True
7587,CUSHMAN WAY,40.424745,-80.004402,0.476363,moderate,Alley,False
7138,HALDANE ST,40.422362,-79.942632,0.476363,moderate,Local,False
7736,STANLEY ST,40.423276,-79.943858,0.476363,moderate,Local,False
5765,EDGEMONT ST,40.422415,-79.99829,0.476363,moderate,Local,False
7566,FARNSWORTH ST,40.423293,-79.941126,0.476363,moderate,Local,False
16019,LYDIA ST,40.424148,-79.94199,0.476363,moderate,Local,False
15357,NUSSER ST,40.424976,-79.985775,0.476363,moderate,Local,False
2422,WINTERBURN AVE,40.425795,-79.939792,0.476363,moderate,Collector,True
7591,CRAIGHEAD ST,40.424043,-79.998535,0.476363,moderate,Local,False
2939,EUREKA ST,40.423857,-80.002012,0.476363,moderate,Local,False
15459,GABLE ST,40.42119,-79.984415,0.476363,moderate,Local,True
11789,LYDIA ST,40.425681,-79.942514,0.476363,moderate,Local,True
2247,MINNESOTA ST,40.421767,-79.938764,0.476363,moderate,Local,False
12516,MANTON WAY,40.421277,-79.995999,0.476363,moderate,Local,False
1041,CRAIGHEAD ST,40.42531,-79.998571,0.476363,moderate,Local,False
16072,MOOSE WAY,40.420969,-79.94188,0.476363,moderate,Alley,False
17737,ST JOSEPH WAY,40.42387,-79.985555,0.476363,moderate,Local,False
3997,S 18TH ST,40.421215,-79.984963,0.476363,moderate,Collector,True
16047,ST THOMAS ST,40.422358,-79.985425,0.476363,moderate,Local,False
826,ST JOSEPH WAY,40.42381,-79.98519,0.476363,moderate,Local,False
9392,WINTERBURN AVE,40.425572,-79.939794,0.476363,moderate,Collector,True
8196,ESTELLA AVE,40.424694,-80.001071,0.476363,moderate,Local,False
973,LEHRMAN WAY,40.422062,-79.98492,0.476363,moderate,Alley,False
6611,PASADENA ST,40.424389,-80.001916,0.476363,moderate,Local,False
14789,EUREKA ST,40.423741,-79.998237,0.476363,moderate,Local,False
11878,S 18TH ST,40.421492,-79.98449,0.476363,moderate,Collector,True
15432,MILLBRIDGE ST,40.422998,-79.995847,0.476363,moderate,Local,False
13680,ARLINGTON AVE,40.421604,-79.992253,0.476363,moderate,Collector,True
10065,UNNAMED55A WAY,40.423061,-79.948772,0.476363,moderate,Alley,False
10862,HABERMAN AVE,40.423308,-80.002648,0.476363,moderate,Local,False
782,CRAIGHEAD ST,40.424667,-79.998554,0.476363,moderate,Local,False
4581,PASADENA ST,40.422753,-80.001705,0.476363,moderate,Local,False
17924,IBEX WAY,40.420977,-79.942866,0.476363,moderate,Alley,False
14724,ESTELLA AVE,40.422739,-80.000809,0.476363,moderate,Local,False
13850,MONASTERY AVE,40.422364,-79.984479,0.476363,moderate,Local,False
17259,LETHANS WAY,40.422883,-80.002149,0.476363,moderate,Alley,False
4050,MONASTERY ST,40.423569,-79.98603,0.476363,moderate,Local,False
4648,CERES WAY,40.423265,-79.994785,0.476363,moderate,Local,False
8762,ALLEN ST,40.422545,-79.993756,0.476363,moderate,Local,False
2799,SECANE AVE EXT,40.42281,-80.002695,0.476363,moderate,Local,False
17735,EUREKA ST,40.423735,-79.997722,0.476363,moderate,Local,True
14243,MANTON WAY,40.421284,-79.995515,0.476363,moderate,Local,False
4023,PRIMROSE ST,40.421222,-79.973185,0.476363,moderate,Local,False
954,EXPOSITION WAY,40.424163,-79.939261,0.476363,moderate,Alley,False
5387,WASSER WAY,40.421383,-79.937956,0.476363,moderate,Alley,False
16548,ST THOMAS ST,40.421961,-79.98538,0.476363,moderate,Local,False
8970,MOON WAY,40.422088,-79.944281,0.476363,moderate,Alley,False
